{"code":"ALG","nation":"Algeria","flag":"\ud83c\udde9\ud83c\uddff","confederation":"CAF","host":false,"b05006":["B05006_111E"],"cuisines":["African","Mediterranean","Middle Eastern"],"notes":"No 'Algerian' tag; broad buckets.","nyc_total":3356,"choropleth":{"3604103":{"count":32,"moe":54,"reliab":"low","share_fb":0.0006},"3604108":{"count":623,"moe":668,"reliab":"low","share_fb":0.0122},"3604110":{"count":46,"moe":49,"reliab":"low","share_fb":0.0014},"3604111":{"count":120,"moe":189,"reliab":"low","share_fb":0.004},"3604112":{"count":43,"moe":68,"reliab":"low","share_fb":0.0005},"3604165":{"count":28,"moe":33,"reliab":"low","share_fb":0.0006},"3604207":{"count":38,"moe":70,"reliab":"low","share_fb":0.0007},"3604208":{"count":211,"moe":189,"reliab":"low","share_fb":0.007},"3604301":{"count":30,"moe":38,"reliab":"low","share_fb":0.0007},"3604302":{"count":83,"moe":97,"reliab":"low","share_fb":0.0031},"3604304":{"count":34,"moe":54,"reliab":"low","share_fb":0.001},"3604306":{"count":7,"moe":10,"reliab":"low","share_fb":0.0003},"3604307":{"count":353,"moe":386,"reliab":"low","share_fb":0.0074},"3604308":{"count":83,"moe":98,"reliab":"low","share_fb":0.0029},"3604309":{"count":41,"moe":39,"reliab":"low","share_fb":0.0012},"3604310":{"count":322,"moe":197,"reliab":"low","share_fb":0.0068},"3604311":{"count":100,"moe":91,"reliab":"low","share_fb":0.001},"3604312":{"count":73,"moe":83,"reliab":"low","share_fb":0.0013},"3604313":{"count":33,"moe":33,"reliab":"low","share_fb":0.0005},"3604314":{"count":27,"moe":32,"reliab":"low","share_fb":0.0004},"3604315":{"count":28,"moe":34,"reliab":"low","share_fb":0.0004},"3604318":{"count":27,"moe":39,"reliab":"low","share_fb":0.0004},"3604401":{"count":412,"moe":411,"reliab":"low","share_fb":0.0063},"3604402":{"count":129,"moe":128,"reliab":"low","share_fb":0.0021},"3604403":{"count":113,"moe":112,"reliab":"low","share_fb":0.0012},"3604404":{"count":39,"moe":44,"reliab":"low","share_fb":0.0004},"3604405":{"count":5,"moe":12,"reliab":"low","share_fb":0.0001},"3604409":{"count":45,"moe":54,"reliab":"low","share_fb":0.0006},"3604410":{"count":21,"moe":36,"reliab":"low","share_fb":0.0003},"3604412":{"count":28,"moe":32,"reliab":"low","share_fb":0.0002},"3604501":{"count":62,"moe":62,"reliab":"low","share_fb":0.0013},"3604502":{"count":66,"moe":73,"reliab":"low","share_fb":0.0015},"3604503":{"count":54,"moe":62,"reliab":"low","share_fb":0.0017}},"top_pumas":["3604108","3604401","3604307","3604310","3604208","3604402"],"top_puma_names":["Upper East Side & Roosevelt Island","Astoria & Queensbridge","Sunset Park & Windsor Terrace","Bay Ridge & Dyker Heights","Riverdale, Kingsbridge, & Marble Hill","Long Island City, Sunnyside, & Woodside"],"venues":[{"name":"Al Aqsa Bakery & Restaurant","lat":40.633226,"lon":-74.021098,"puma":"3604310","puma_name":"Bay Ridge & Dyker Heights","cuisine":"Middle Eastern","boro":"Brooklyn","rating":null,"price":null,"fsq_id":null},{"name":"Al Badawi","lat":40.779999,"lon":-73.950207,"puma":"3604108","puma_name":"Upper East Side & Roosevelt Island","cuisine":"Middle Eastern","boro":"Manhattan","rating":null,"price":null,"fsq_id":null},{"name":"Al Noor Restaurant","lat":40.768492,"lon":-73.911247,"puma":"3604401","puma_name":"Astoria & Queensbridge","cuisine":"Middle Eastern","boro":"Queens","rating":null,"price":null,"fsq_id":null},{"name":"Al Reef Bakery & Restaurant","lat":40.626372,"lon":-74.023895,"puma":"3604310","puma_name":"Bay Ridge & Dyker Heights","cuisine":"Middle Eastern","boro":"Brooklyn","rating":null,"price":null,"fsq_id":null},{"name":"Al Sham Restaurant","lat":40.627852,"lon":-74.023294,"puma":"3604310","puma_name":"Bay Ridge & Dyker Heights","cuisine":"Middle Eastern","boro":"Brooklyn","rating":null,"price":null,"fsq_id":null},{"name":"Al-Sham Restaurant","lat":40.76751,"lon":-73.912057,"puma":"3604401","puma_name":"Astoria & Queensbridge","cuisine":"Middle Eastern","boro":"Queens","rating":null,"price":null,"fsq_id":null},{"name":"Al-Sham Sweets & Pastries","lat":40.768484,"lon":-73.911229,"puma":"3604401","puma_name":"Astoria & Queensbridge","cuisine":"Middle Eastern","boro":"Queens","rating":null,"price":null,"fsq_id":null},{"name":"Aladdin Hookah Lounge","lat":40.767535,"lon":-73.912014,"puma":"3604401","puma_name":"Astoria & Queensbridge","cuisine":"Middle Eastern","boro":"Queens","rating":null,"price":null,"fsq_id":null},{"name":"Alnoor Halal Deli","lat":40.662057,"lon":-73.99637,"puma":"3604307","puma_name":"Sunset Park & Windsor Terrace","cuisine":"Middle Eastern","boro":"Brooklyn","rating":null,"price":null,"fsq_id":null},{"name":"Alqariah Restaurant","lat":40.768492,"lon":-73.911247,"puma":"3604401","puma_name":"Astoria & Queensbridge","cuisine":"Mediterranean","boro":"Queens","rating":null,"price":null,"fsq_id":null},{"name":"Alshibani Restaurant","lat":40.632651,"lon":-74.027313,"puma":"3604310","puma_name":"Bay Ridge & Dyker Heights","cuisine":"Middle Eastern","boro":"Brooklyn","rating":null,"price":null,"fsq_id":null},{"name":"Amali / Sopra","lat":40.763236,"lon":-73.968612,"puma":"3604108","puma_name":"Upper East Side & Roosevelt Island","cuisine":"Mediterranean","boro":"Manhattan","rating":null,"price":null,"fsq_id":null},{"name":"Amaranth","lat":40.765613,"lon":-73.97038,"puma":"3604108","puma_name":"Upper East Side & Roosevelt Island","cuisine":"Mediterranean","boro":"Manhattan","rating":null,"price":null,"fsq_id":null},{"name":"Ayat","lat":40.655881,"lon":-74.007053,"puma":"3604307","puma_name":"Sunset Park & Windsor Terrace","cuisine":"Middle Eastern","boro":"Brooklyn","rating":null,"price":null,"fsq_id":null},{"name":"Ayat Meast","lat":40.624188,"lon":-74.03075,"puma":"3604310","puma_name":"Bay Ridge & Dyker Heights","cuisine":"Middle Eastern","boro":"Brooklyn","rating":null,"price":null,"fsq_id":null},{"name":"Bahary Fish Market","lat":40.633742,"lon":-74.021642,"puma":"3604310","puma_name":"Bay Ridge & Dyker Heights","cuisine":"Mediterranean","boro":"Brooklyn","rating":null,"price":null,"fsq_id":null},{"name":"Bai Dar Cafe","lat":40.63633,"lon":-74.025808,"puma":"3604310","puma_name":"Bay Ridge & Dyker Heights","cuisine":"Mediterranean","boro":"Brooklyn","rating":null,"price":null,"fsq_id":null},{"name":"Barouk Lebanese Cuisine","lat":40.664444,"lon":-73.990297,"puma":"3604307","puma_name":"Sunset Park & Windsor Terrace","cuisine":"Middle Eastern","boro":"Brooklyn","rating":null,"price":null,"fsq_id":null},{"name":"Batata","lat":40.648366,"lon":-73.97863,"puma":"3604307","puma_name":"Sunset Park & Windsor Terrace","cuisine":"Mediterranean","boro":"Brooklyn","rating":null,"price":null,"fsq_id":null},{"name":"Bedawi Cafe","lat":40.658512,"lon":-73.982033,"puma":"3604307","puma_name":"Sunset Park & Windsor Terrace","cuisine":"Mediterranean","boro":"Brooklyn","rating":null,"price":null,"fsq_id":null},{"name":"Beit Jeddo","lat":40.633226,"lon":-74.021098,"puma":"3604310","puma_name":"Bay Ridge & Dyker Heights","cuisine":"Middle Eastern","boro":"Brooklyn","rating":null,"price":null,"fsq_id":null},{"name":"Brooklyn Kebab House","lat":40.633935,"lon":-74.020803,"puma":"3604310","puma_name":"Bay Ridge & Dyker Heights","cuisine":"Middle Eastern","boro":"Brooklyn","rating":null,"price":null,"fsq_id":null},{"name":"Casa Cruz","lat":40.764691,"lon":-73.970182,"puma":"3604108","puma_name":"Upper East Side & Roosevelt Island","cuisine":"Mediterranean","boro":"Manhattan","rating":null,"price":null,"fsq_id":null},{"name":"Cava","lat":40.779101,"lon":-73.953764,"puma":"3604108","puma_name":"Upper East Side & Roosevelt Island","cuisine":"Mediterranean","boro":"Manhattan","rating":null,"price":null,"fsq_id":null},{"name":"Code Astoria","lat":40.775783,"lon":-73.902485,"puma":"3604401","puma_name":"Astoria & Queensbridge","cuisine":"Mediterranean","boro":"Queens","rating":null,"price":null,"fsq_id":null},{"name":"Costa","lat":40.784871,"lon":-73.955891,"puma":"3604108","puma_name":"Upper East Side & Roosevelt Island","cuisine":"Mediterranean","boro":"Manhattan","rating":null,"price":null,"fsq_id":null},{"name":"Deja Vu","lat":40.767605,"lon":-73.918256,"puma":"3604401","puma_name":"Astoria & Queensbridge","cuisine":"Mediterranean","boro":"Queens","rating":null,"price":null,"fsq_id":null},{"name":"Dream Cafe","lat":40.767554,"lon":-73.912021,"puma":"3604401","puma_name":"Astoria & Queensbridge","cuisine":"Middle Eastern","boro":"Queens","rating":null,"price":null,"fsq_id":null},{"name":"Duzan","lat":40.768643,"lon":-73.911095,"puma":"3604401","puma_name":"Astoria & Queensbridge","cuisine":"Middle Eastern","boro":"Queens","rating":null,"price":null,"fsq_id":null},{"name":"Falafel Palace","lat":40.62831,"lon":-74.023867,"puma":"3604310","puma_name":"Bay Ridge & Dyker Heights","cuisine":"Middle Eastern","boro":"Brooklyn","rating":null,"price":null,"fsq_id":null},{"name":"Fire Kabob","lat":40.620885,"lon":-74.025204,"puma":"3604310","puma_name":"Bay Ridge & Dyker Heights","cuisine":"Middle Eastern","boro":"Brooklyn","rating":null,"price":null,"fsq_id":null},{"name":"Fotia Mediterranean","lat":40.763046,"lon":-73.968172,"puma":"3604108","puma_name":"Upper East Side & Roosevelt Island","cuisine":"Mediterranean","boro":"Manhattan","rating":null,"price":null,"fsq_id":null},{"name":"German Doner Kebab","lat":40.759717,"lon":-73.918377,"puma":"3604401","puma_name":"Astoria & Queensbridge","cuisine":"Mediterranean","boro":"Queens","rating":null,"price":null,"fsq_id":null},{"name":"Greek Xpress","lat":40.659969,"lon":-73.98071,"puma":"3604307","puma_name":"Sunset Park & Windsor Terrace","cuisine":"Mediterranean","boro":"Brooklyn","rating":null,"price":null,"fsq_id":null},{"name":"Gyro King","lat":40.632009,"lon":-74.027576,"puma":"3604310","puma_name":"Bay Ridge & Dyker Heights","cuisine":"Middle Eastern","boro":"Brooklyn","rating":null,"price":null,"fsq_id":null},{"name":"Gyro Uno","lat":40.765233,"lon":-73.913883,"puma":"3604401","puma_name":"Astoria & Queensbridge","cuisine":"Mediterranean","boro":"Queens","rating":null,"price":null,"fsq_id":null},{"name":"Gyro World","lat":40.764945,"lon":-73.917263,"puma":"3604401","puma_name":"Astoria & Queensbridge","cuisine":"Mediterranean","boro":"Queens","rating":null,"price":null,"fsq_id":null},{"name":"Halal Munchies","lat":40.767551,"lon":-73.911999,"puma":"3604401","puma_name":"Astoria & Queensbridge","cuisine":"Middle Eastern","boro":"Queens","rating":null,"price":null,"fsq_id":null},{"name":"Halal Munchies","lat":40.626301,"lon":-74.023928,"puma":"3604310","puma_name":"Bay Ridge & Dyker Heights","cuisine":"Middle Eastern","boro":"Brooklyn","rating":null,"price":null,"fsq_id":null},{"name":"Halal Munchies","lat":40.744632,"lon":-73.931493,"puma":"3604402","puma_name":"Long Island City, Sunnyside, & Woodside","cuisine":"Middle Eastern","boro":"Queens","rating":null,"price":null,"fsq_id":null},{"name":"Harissa Grill","lat":40.743161,"lon":-73.936568,"puma":"3604402","puma_name":"Long Island City, Sunnyside, & Woodside","cuisine":"Mediterranean","boro":"Queens","rating":null,"price":null,"fsq_id":null},{"name":"Haveli Cafe & Hookah Lounge","lat":40.635315,"lon":-74.020238,"puma":"3604310","puma_name":"Bay Ridge & Dyker Heights","cuisine":"Middle Eastern","boro":"Brooklyn","rating":null,"price":null,"fsq_id":null},{"name":"Hayat Caterers","lat":40.635146,"lon":-74.017082,"puma":"3604310","puma_name":"Bay Ridge & Dyker Heights","cuisine":"Mediterranean","boro":"Brooklyn","rating":null,"price":null,"fsq_id":null},{"name":"Hayati","lat":40.767543,"lon":-73.912007,"puma":"3604401","puma_name":"Astoria & Queensbridge","cuisine":"Middle Eastern","boro":"Queens","rating":null,"price":null,"fsq_id":null},{"name":"Hemo","lat":40.6333,"lon":-74.021066,"puma":"3604310","puma_name":"Bay Ridge & Dyker Heights","cuisine":"Mediterranean","boro":"Brooklyn","rating":null,"price":null,"fsq_id":null},{"name":"Holy Pita","lat":40.658611,"lon":-73.981903,"puma":"3604307","puma_name":"Sunset Park & Windsor Terrace","cuisine":"Middle Eastern","boro":"Brooklyn","rating":null,"price":null,"fsq_id":null},{"name":"Jerusalem Pita Hot","lat":40.768559,"lon":-73.924941,"puma":"3604401","puma_name":"Astoria & Queensbridge","cuisine":"Mediterranean","boro":"Queens","rating":null,"price":null,"fsq_id":null},{"name":"Kaia Wine Bar","lat":40.781749,"lon":-73.951859,"puma":"3604108","puma_name":"Upper East Side & Roosevelt Island","cuisine":"African","boro":"Manhattan","rating":null,"price":null,"fsq_id":null},{"name":"Karam Restaurant","lat":40.623349,"lon":-74.028112,"puma":"3604310","puma_name":"Bay Ridge & Dyker Heights","cuisine":"Middle Eastern","boro":"Brooklyn","rating":null,"price":null,"fsq_id":null},{"name":"King Of Falafel & Shawarma","lat":40.762255,"lon":-73.92598,"puma":"3604401","puma_name":"Astoria & Queensbridge","cuisine":"Mediterranean","boro":"Queens","rating":null,"price":null,"fsq_id":null},{"name":"Lailas","lat":40.624007,"lon":-74.030847,"puma":"3604310","puma_name":"Bay Ridge & Dyker Heights","cuisine":"Middle Eastern","boro":"Brooklyn","rating":null,"price":null,"fsq_id":null},{"name":"Lamoza Cafe","lat":40.629887,"lon":-74.028447,"puma":"3604310","puma_name":"Bay Ridge & Dyker Heights","cuisine":"Mediterranean","boro":"Brooklyn","rating":null,"price":null,"fsq_id":null},{"name":"Lava Shawarma","lat":40.782492,"lon":-73.95131,"puma":"3604108","puma_name":"Upper East Side & Roosevelt Island","cuisine":"Middle Eastern","boro":"Manhattan","rating":null,"price":null,"fsq_id":null},{"name":"Lava Shawarma","lat":40.62291,"lon":-74.028865,"puma":"3604310","puma_name":"Bay Ridge & Dyker Heights","cuisine":"Middle Eastern","boro":"Brooklyn","rating":null,"price":null,"fsq_id":null},{"name":"Layali Beirut","lat":40.76754,"lon":-73.912032,"puma":"3604401","puma_name":"Astoria & Queensbridge","cuisine":"Mediterranean","boro":"Queens","rating":null,"price":null,"fsq_id":null},{"name":"Layaly Cafe","lat":40.757395,"lon":-73.915637,"puma":"3604401","puma_name":"Astoria & Queensbridge","cuisine":"Mediterranean","boro":"Queens","rating":null,"price":null,"fsq_id":null},{"name":"Laza Desserts","lat":40.634599,"lon":-74.020558,"puma":"3604310","puma_name":"Bay Ridge & Dyker Heights","cuisine":"Middle Eastern","boro":"Brooklyn","rating":null,"price":null,"fsq_id":null},{"name":"Le Sajj Restaurant","lat":40.624096,"lon":-74.024827,"puma":"3604310","puma_name":"Bay Ridge & Dyker Heights","cuisine":"Middle Eastern","boro":"Brooklyn","rating":null,"price":null,"fsq_id":null},{"name":"Legacy","lat":40.767529,"lon":-73.912043,"puma":"3604401","puma_name":"Astoria & Queensbridge","cuisine":"Middle Eastern","boro":"Queens","rating":null,"price":null,"fsq_id":null},{"name":"Levant","lat":40.767535,"lon":-73.912036,"puma":"3604401","puma_name":"Astoria & Queensbridge","cuisine":"Middle Eastern","boro":"Queens","rating":null,"price":null,"fsq_id":null},{"name":"Malu Bakery","lat":40.758907,"lon":-73.918851,"puma":"3604401","puma_name":"Astoria & Queensbridge","cuisine":"Middle Eastern","boro":"Queens","rating":null,"price":null,"fsq_id":null},{"name":"Maqluba","lat":40.634287,"lon":-74.026625,"puma":"3604310","puma_name":"Bay Ridge & Dyker Heights","cuisine":"Middle Eastern","boro":"Brooklyn","rating":null,"price":null,"fsq_id":null},{"name":"Matari Coffee Co","lat":40.633023,"lon":-74.021177,"puma":"3604310","puma_name":"Bay Ridge & Dyker Heights","cuisine":"Middle Eastern","boro":"Brooklyn","rating":null,"price":null,"fsq_id":null},{"name":"Maxime's","lat":40.769938,"lon":-73.966789,"puma":"3604108","puma_name":"Upper East Side & Roosevelt Island","cuisine":"Mediterranean","boro":"Manhattan","rating":null,"price":null,"fsq_id":null},{"name":"Me-Mediterranean Eatery","lat":40.76195,"lon":-73.949679,"puma":"3604108","puma_name":"Upper East Side & Roosevelt Island","cuisine":"Mediterranean","boro":"Manhattan","rating":null,"price":null,"fsq_id":null},{"name":"Melody","lat":40.767502,"lon":-73.912039,"puma":"3604401","puma_name":"Astoria & Queensbridge","cuisine":"Middle Eastern","boro":"Queens","rating":null,"price":null,"fsq_id":null},{"name":"Nablus Sweets","lat":40.634,"lon":-74.020799,"puma":"3604310","puma_name":"Bay Ridge & Dyker Heights","cuisine":"Middle Eastern","boro":"Brooklyn","rating":null,"price":null,"fsq_id":null},{"name":"Naya","lat":40.765676,"lon":-73.954589,"puma":"3604108","puma_name":"Upper East Side & Roosevelt Island","cuisine":"Middle Eastern","boro":"Manhattan","rating":null,"price":null,"fsq_id":null},{"name":"Naya","lat":40.747234,"lon":-73.942032,"puma":"3604402","puma_name":"Long Island City, Sunnyside, & Woodside","cuisine":"Middle Eastern","boro":"Queens","rating":null,"price":null,"fsq_id":null},{"name":"Nyc Huqqah Haus","lat":40.635567,"lon":-74.026114,"puma":"3604310","puma_name":"Bay Ridge & Dyker Heights","cuisine":"Middle Eastern","boro":"Brooklyn","rating":null,"price":null,"fsq_id":null},{"name":"Offcity","lat":40.761516,"lon":-73.924404,"puma":"3604401","puma_name":"Astoria & Queensbridge","cuisine":"Mediterranean","boro":"Queens","rating":null,"price":null,"fsq_id":null},{"name":"Olive Fast Food","lat":40.767579,"lon":-73.912003,"puma":"3604401","puma_name":"Astoria & Queensbridge","cuisine":"Mediterranean","boro":"Queens","rating":null,"price":null,"fsq_id":null},{"name":"Omonia Cafe","lat":40.630576,"lon":-74.028162,"puma":"3604310","puma_name":"Bay Ridge & Dyker Heights","cuisine":"Mediterranean","boro":"Brooklyn","rating":null,"price":null,"fsq_id":null},{"name":"Osteria Nando","lat":40.775582,"lon":-73.953424,"puma":"3604108","puma_name":"Upper East Side & Roosevelt Island","cuisine":"Mediterranean","boro":"Manhattan","rating":null,"price":null,"fsq_id":null},{"name":"Paradise Sweets And Bakery","lat":40.634604,"lon":-74.020533,"puma":"3604310","puma_name":"Bay Ridge & Dyker Heights","cuisine":"Middle Eastern","boro":"Brooklyn","rating":null,"price":null,"fsq_id":null},{"name":"Persepolis","lat":40.769723,"lon":-73.957699,"puma":"3604108","puma_name":"Upper East Side & Roosevelt Island","cuisine":"Mediterranean","boro":"Manhattan","rating":null,"price":null,"fsq_id":null},{"name":"Rafael","lat":40.769415,"lon":-73.962923,"puma":"3604108","puma_name":"Upper East Side & Roosevelt Island","cuisine":"Mediterranean","boro":"Manhattan","rating":null,"price":null,"fsq_id":null},{"name":"Ravagh Persian Grill","lat":40.761625,"lon":-73.960501,"puma":"3604108","puma_name":"Upper East Side & Roosevelt Island","cuisine":"Middle Eastern","boro":"Manhattan","rating":null,"price":null,"fsq_id":null},{"name":"Rose Hookah Lounge","lat":40.769907,"lon":-73.909664,"puma":"3604401","puma_name":"Astoria & Queensbridge","cuisine":"Middle Eastern","boro":"Queens","rating":null,"price":null,"fsq_id":null},{"name":"Rotana Lounge","lat":40.767537,"lon":-73.91201,"puma":"3604401","puma_name":"Astoria & Queensbridge","cuisine":"Middle Eastern","boro":"Queens","rating":null,"price":null,"fsq_id":null},{"name":"Ruzana","lat":40.622466,"lon":-74.026232,"puma":"3604310","puma_name":"Bay Ridge & Dyker Heights","cuisine":"Mediterranean","boro":"Brooklyn","rating":null,"price":null,"fsq_id":null},{"name":"Sami's Kabab House","lat":40.744593,"lon":-73.953489,"puma":"3604402","puma_name":"Long Island City, Sunnyside, & Woodside","cuisine":"Middle Eastern","boro":"Queens","rating":null,"price":null,"fsq_id":null},{"name":"Sands Of Persia","lat":40.767581,"lon":-73.911974,"puma":"3604401","puma_name":"Astoria & Queensbridge","cuisine":"Middle Eastern","boro":"Queens","rating":null,"price":null,"fsq_id":null},{"name":"Sawa Mediterranean Cuisine","lat":40.886718,"lon":-73.90706,"puma":"3604208","puma_name":"Riverdale, Kingsbridge, & Marble Hill","cuisine":"Mediterranean","boro":"Bronx","rating":null,"price":null,"fsq_id":null},{"name":"Sea Salt","lat":40.761191,"lon":-73.960827,"puma":"3604108","puma_name":"Upper East Side & Roosevelt Island","cuisine":"Mediterranean","boro":"Manhattan","rating":null,"price":null,"fsq_id":null},{"name":"Serena's","lat":40.765322,"lon":-73.960889,"puma":"3604108","puma_name":"Upper East Side & Roosevelt Island","cuisine":"Mediterranean","boro":"Manhattan","rating":null,"price":null,"fsq_id":null},{"name":"Shah's Halal Food","lat":40.767166,"lon":-73.921971,"puma":"3604401","puma_name":"Astoria & Queensbridge","cuisine":"Middle Eastern","boro":"Queens","rating":null,"price":null,"fsq_id":null},{"name":"Shah's Halal Food","lat":40.740498,"lon":-73.922861,"puma":"3604402","puma_name":"Long Island City, Sunnyside, & Woodside","cuisine":"Middle Eastern","boro":"Queens","rating":null,"price":null,"fsq_id":null},{"name":"Shawarma House","lat":40.753396,"lon":-73.923554,"puma":"3604401","puma_name":"Astoria & Queensbridge","cuisine":"Middle Eastern","boro":"Queens","rating":null,"price":null,"fsq_id":null},{"name":"Shawarma Spot","lat":40.756194,"lon":-73.92124,"puma":"3604401","puma_name":"Astoria & Queensbridge","cuisine":"Mediterranean","boro":"Queens","rating":null,"price":null,"fsq_id":null},{"name":"Shawarmania","lat":40.775083,"lon":-73.911953,"puma":"3604401","puma_name":"Astoria & Queensbridge","cuisine":"Middle Eastern","boro":"Queens","rating":null,"price":null,"fsq_id":null},{"name":"Sheba Hookah Lounge","lat":40.627078,"lon":-74.023632,"puma":"3604310","puma_name":"Bay Ridge & Dyker Heights","cuisine":"Middle Eastern","boro":"Brooklyn","rating":null,"price":null,"fsq_id":null},{"name":"Sheel & Mashi","lat":40.632436,"lon":-74.021419,"puma":"3604310","puma_name":"Bay Ridge & Dyker Heights","cuisine":"Middle Eastern","boro":"Brooklyn","rating":null,"price":null,"fsq_id":null},{"name":"Sofra Mediterranean Grill","lat":40.742732,"lon":-73.918795,"puma":"3604402","puma_name":"Long Island City, Sunnyside, & Woodside","cuisine":"Mediterranean","boro":"Queens","rating":null,"price":null,"fsq_id":null},{"name":"Somethingreek","lat":40.618961,"lon":-74.008832,"puma":"3604310","puma_name":"Bay Ridge & Dyker Heights","cuisine":"Mediterranean","boro":"Brooklyn","rating":null,"price":null,"fsq_id":null},{"name":"Soom Soom","lat":40.773932,"lon":-73.959653,"puma":"3604108","puma_name":"Upper East Side & Roosevelt Island","cuisine":"Mediterranean","boro":"Manhattan","rating":null,"price":null,"fsq_id":null},{"name":"Taboo","lat":40.767513,"lon":-73.912028,"puma":"3604401","puma_name":"Astoria & Queensbridge","cuisine":"Middle Eastern","boro":"Queens","rating":null,"price":null,"fsq_id":null},{"name":"Taj Mahal Lounge","lat":40.767559,"lon":-73.911992,"puma":"3604401","puma_name":"Astoria & Queensbridge","cuisine":"Middle Eastern","boro":"Queens","rating":null,"price":null,"fsq_id":null},{"name":"Tanoreen Caterers","lat":40.631238,"lon":-74.027871,"puma":"3604310","puma_name":"Bay Ridge & Dyker Heights","cuisine":"Middle Eastern","boro":"Brooklyn","rating":null,"price":null,"fsq_id":null},{"name":"The Broski Grill","lat":40.744552,"lon":-73.911178,"puma":"3604402","puma_name":"Long Island City, Sunnyside, & Woodside","cuisine":"Mediterranean","boro":"Queens","rating":null,"price":null,"fsq_id":null},{"name":"The Hummus & Pita Co.","lat":40.77856,"lon":-73.953364,"puma":"3604108","puma_name":"Upper East Side & Roosevelt Island","cuisine":"Mediterranean","boro":"Manhattan","rating":null,"price":null,"fsq_id":null},{"name":"Tru Astoria","lat":40.774721,"lon":-73.908697,"puma":"3604401","puma_name":"Astoria & Queensbridge","cuisine":"Mediterranean","boro":"Queens","rating":null,"price":null,"fsq_id":null},{"name":"Tru Astoria","lat":40.774721,"lon":-73.908697,"puma":"3604401","puma_name":"Astoria & Queensbridge","cuisine":"Mediterranean","boro":"Queens","rating":null,"price":null,"fsq_id":null},{"name":"Uncle Taher Restaurant","lat":40.631557,"lon":-74.021797,"puma":"3604310","puma_name":"Bay Ridge & Dyker Heights","cuisine":"Mediterranean","boro":"Brooklyn","rating":null,"price":null,"fsq_id":null},{"name":"United Cyprians Of America","lat":40.770706,"lon":-73.920523,"puma":"3604401","puma_name":"Astoria & Queensbridge","cuisine":"Mediterranean","boro":"Queens","rating":null,"price":null,"fsq_id":null},{"name":"Widdi Hall","lat":40.64032,"lon":-74.011714,"puma":"3604307","puma_name":"Sunset Park & Windsor Terrace","cuisine":"Middle Eastern","boro":"Brooklyn","rating":null,"price":null,"fsq_id":null},{"name":"Yemen Cafe Of Bay Ridge","lat":40.630802,"lon":-74.022085,"puma":"3604310","puma_name":"Bay Ridge & Dyker Heights","cuisine":"Middle Eastern","boro":"Brooklyn","rating":null,"price":null,"fsq_id":null},{"name":"Yemen Whdah","lat":40.634887,"lon":-74.020436,"puma":"3604310","puma_name":"Bay Ridge & Dyker Heights","cuisine":"Middle Eastern","boro":"Brooklyn","rating":null,"price":null,"fsq_id":null},{"name":"Yemenat","lat":40.627747,"lon":-74.023334,"puma":"3604310","puma_name":"Bay Ridge & Dyker Heights","cuisine":"Middle Eastern","boro":"Brooklyn","rating":null,"price":null,"fsq_id":null},{"name":"Zagaya Wine Bar","lat":40.66035,"lon":-73.980266,"puma":"3604307","puma_name":"Sunset Park & Windsor Terrace","cuisine":"Mediterranean","boro":"Brooklyn","rating":null,"price":null,"fsq_id":null},{"name":"Zikrayat","lat":40.768813,"lon":-73.910785,"puma":"3604401","puma_name":"Astoria & Queensbridge","cuisine":"Middle Eastern","boro":"Queens","rating":null,"price":null,"fsq_id":null},{"name":"Zoi Mediterranean Cuisine","lat":40.772196,"lon":-73.95587,"puma":"3604108","puma_name":"Upper East Side & Roosevelt Island","cuisine":"Mediterranean","boro":"Manhattan","rating":null,"price":null,"fsq_id":null},{"name":"Zyara","lat":40.767537,"lon":-73.91201,"puma":"3604401","puma_name":"Astoria & Queensbridge","cuisine":"Middle Eastern","boro":"Queens","rating":null,"price":null,"fsq_id":null}],"stats":{"nyc_total":3356,"top_neighborhood":"Upper East Side & Roosevelt Island","n_venues":113,"n_affordable_rated":0,"median_rating":null},"data_quality":"ok"}