{"code":"ARG","nation":"Argentina","flag":"\ud83c\udde6\ud83c\uddf7","confederation":"CONMEBOL","host":false,"b05006":["B05006_165E"],"cuisines":["Latin American","Chimichurri","Steakhouse"],"notes":"No 'Argentine' DOHMH tag; Latin American is the closest bucket. Steakhouse/Chimichurri added since Argentine asado spots often file under those. Co-location to Argentine neighborhoods sharpens the result.","nyc_total":11144,"choropleth":{"3604103":{"count":148,"moe":132,"reliab":"low","share_fb":0.003},"3604104":{"count":560,"moe":479,"reliab":"low","share_fb":0.0169},"3604107":{"count":267,"moe":216,"reliab":"low","share_fb":0.0053},"3604108":{"count":1161,"moe":441,"reliab":"moderate","share_fb":0.0228},"3604109":{"count":247,"moe":197,"reliab":"low","share_fb":0.0065},"3604110":{"count":39,"moe":37,"reliab":"low","share_fb":0.0012},"3604111":{"count":65,"moe":81,"reliab":"low","share_fb":0.0021},"3604112":{"count":58,"moe":45,"reliab":"low","share_fb":0.0007},"3604121":{"count":469,"moe":271,"reliab":"low","share_fb":0.0126},"3604165":{"count":372,"moe":220,"reliab":"low","share_fb":0.0074},"3604204":{"count":4,"moe":11,"reliab":"low","share_fb":0.0001},"3604205":{"count":52,"moe":58,"reliab":"low","share_fb":0.0009},"3604207":{"count":37,"moe":37,"reliab":"low","share_fb":0.0006},"3604208":{"count":139,"moe":99,"reliab":"low","share_fb":0.0046},"3604209":{"count":58,"moe":62,"reliab":"low","share_fb":0.001},"3604210":{"count":98,"moe":84,"reliab":"low","share_fb":0.003},"3604211":{"count":133,"moe":143,"reliab":"low","share_fb":0.0035},"3604212":{"count":130,"moe":170,"reliab":"low","share_fb":0.0021},"3604221":{"count":27,"moe":39,"reliab":"low","share_fb":0.0007},"3604263":{"count":10,"moe":18,"reliab":"low","share_fb":0.0002},"3604301":{"count":431,"moe":186,"reliab":"moderate","share_fb":0.0099},"3604302":{"count":172,"moe":118,"reliab":"low","share_fb":0.0065},"3604303":{"count":116,"moe":82,"reliab":"low","share_fb":0.0033},"3604304":{"count":102,"moe":72,"reliab":"low","share_fb":0.0029},"3604305":{"count":95,"moe":71,"reliab":"low","share_fb":0.0013},"3604306":{"count":171,"moe":85,"reliab":"low","share_fb":0.0079},"3604307":{"count":131,"moe":100,"reliab":"low","share_fb":0.0028},"3604308":{"count":83,"moe":64,"reliab":"low","share_fb":0.0029},"3604309":{"count":292,"moe":154,"reliab":"low","share_fb":0.0087},"3604310":{"count":58,"moe":44,"reliab":"low","share_fb":0.0012},"3604311":{"count":149,"moe":98,"reliab":"low","share_fb":0.0015},"3604312":{"count":243,"moe":126,"reliab":"low","share_fb":0.0042},"3604313":{"count":18,"moe":28,"reliab":"low","share_fb":0.0003},"3604314":{"count":39,"moe":50,"reliab":"low","share_fb":0.0006},"3604315":{"count":63,"moe":61,"reliab":"low","share_fb":0.0008},"3604316":{"count":87,"moe":116,"reliab":"low","share_fb":0.0029},"3604317":{"count":16,"moe":25,"reliab":"low","share_fb":0.0002},"3604318":{"count":135,"moe":115,"reliab":"low","share_fb":0.0018},"3604401":{"count":565,"moe":198,"reliab":"moderate","share_fb":0.0087},"3604402":{"count":396,"moe":251,"reliab":"low","share_fb":0.0064},"3604403":{"count":592,"moe":332,"reliab":"low","share_fb":0.0062},"3604404":{"count":384,"moe":220,"reliab":"low","share_fb":0.0036},"3604405":{"count":282,"moe":155,"reliab":"low","share_fb":0.004},"3604406":{"count":217,"moe":114,"reliab":"low","share_fb":0.0038},"3604407":{"count":510,"moe":256,"reliab":"low","share_fb":0.0036},"3604408":{"count":416,"moe":408,"reliab":"low","share_fb":0.0057},"3604409":{"count":277,"moe":190,"reliab":"low","share_fb":0.0036},"3604410":{"count":151,"moe":94,"reliab":"low","share_fb":0.0024},"3604411":{"count":272,"moe":157,"reliab":"low","share_fb":0.0054},"3604412":{"count":167,"moe":136,"reliab":"low","share_fb":0.0014},"3604413":{"count":238,"moe":117,"reliab":"moderate","share_fb":0.0026},"3604414":{"count":46,"moe":43,"reliab":"low","share_fb":0.0012},"3604501":{"count":80,"moe":53,"reliab":"low","share_fb":0.0017},"3604502":{"count":43,"moe":42,"reliab":"low","share_fb":0.001},"3604503":{"count":33,"moe":33,"reliab":"low","share_fb":0.0011}},"top_pumas":["3604108","3604403","3604401","3604104","3604407","3604121","3604301","3604408"],"top_puma_names":["Upper East Side & Roosevelt Island","Jackson Heights & East Elmhurst","Astoria & Queensbridge","Chelsea & Hell's Kitchen","Flushing, Murray Hill, & Whitestone","Financial District & Greenwich Village","Williamsburg & Greenpoint","Fresh Meadows, Hillcrest, & Briarwood"],"venues":[{"name":"& Son","lat":40.733953,"lon":-73.998586,"puma":"3604121","puma_name":"Financial District & Greenwich Village","cuisine":"Steakhouse","boro":"Manhattan","rating":null,"price":null,"fsq_id":null},{"name":"4 Charles Prime Rib","lat":40.735254,"lon":-74.00061,"puma":"3604121","puma_name":"Financial District & Greenwich Village","cuisine":"Steakhouse","boro":"Manhattan","rating":null,"price":null,"fsq_id":null},{"name":"809 Steak & Fries \"R\" Us","lat":40.753936,"lon":-73.8611,"puma":"3604403","puma_name":"Jackson Heights & East Elmhurst","cuisine":"Latin American","boro":"Queens","rating":null,"price":null,"fsq_id":null},{"name":"Acapulco","lat":40.760065,"lon":-73.914468,"puma":"3604401","puma_name":"Astoria & Queensbridge","cuisine":"Latin American","boro":"Queens","rating":null,"price":null,"fsq_id":null},{"name":"Acento","lat":40.775278,"lon":-73.909516,"puma":"3604401","puma_name":"Astoria & Queensbridge","cuisine":"Latin American","boro":"Queens","rating":null,"price":null,"fsq_id":null},{"name":"Adela'S Cafe Restaurant","lat":40.750939,"lon":-73.873024,"puma":"3604403","puma_name":"Jackson Heights & East Elmhurst","cuisine":"Latin American","boro":"Queens","rating":null,"price":null,"fsq_id":null},{"name":"Agenda","lat":40.76801,"lon":-73.920436,"puma":"3604401","puma_name":"Astoria & Queensbridge","cuisine":"Latin American","boro":"Queens","rating":null,"price":null,"fsq_id":null},{"name":"Amber Steakhouse","lat":40.724379,"lon":-73.948964,"puma":"3604301","puma_name":"Williamsburg & Greenpoint","cuisine":"Steakhouse","boro":"Brooklyn","rating":null,"price":null,"fsq_id":null},{"name":"American Coffee Shop","lat":40.703867,"lon":-73.941283,"puma":"3604301","puma_name":"Williamsburg & Greenpoint","cuisine":"Latin American","boro":"Brooklyn","rating":null,"price":null,"fsq_id":null},{"name":"American Cut","lat":40.71915,"lon":-74.010332,"puma":"3604121","puma_name":"Financial District & Greenwich Village","cuisine":"Steakhouse","boro":"Manhattan","rating":null,"price":null,"fsq_id":null},{"name":"Antojitos El Mijin","lat":40.757446,"lon":-73.86729,"puma":"3604403","puma_name":"Jackson Heights & East Elmhurst","cuisine":"Latin American","boro":"Queens","rating":null,"price":null,"fsq_id":null},{"name":"Arepa Lady","lat":40.749284,"lon":-73.888727,"puma":"3604403","puma_name":"Jackson Heights & East Elmhurst","cuisine":"Latin American","boro":"Queens","rating":null,"price":null,"fsq_id":null},{"name":"Arepa Lady","lat":40.758987,"lon":-73.927785,"puma":"3604401","puma_name":"Astoria & Queensbridge","cuisine":"Latin American","boro":"Queens","rating":null,"price":null,"fsq_id":null},{"name":"Arepas Burger","lat":40.755479,"lon":-73.886132,"puma":"3604403","puma_name":"Jackson Heights & East Elmhurst","cuisine":"Latin American","boro":"Queens","rating":null,"price":null,"fsq_id":null},{"name":"Arepas Cafe","lat":40.755762,"lon":-73.927994,"puma":"3604401","puma_name":"Astoria & Queensbridge","cuisine":"Latin American","boro":"Queens","rating":null,"price":null,"fsq_id":null},{"name":"Asadero La Fogata","lat":40.75577,"lon":-73.88337,"puma":"3604403","puma_name":"Jackson Heights & East Elmhurst","cuisine":"Latin American","boro":"Queens","rating":null,"price":null,"fsq_id":null},{"name":"Azoguenita Bakery","lat":40.752773,"lon":-73.864185,"puma":"3604403","puma_name":"Jackson Heights & East Elmhurst","cuisine":"Latin American","boro":"Queens","rating":null,"price":null,"fsq_id":null},{"name":"Azoguenita Bakery & Restaurant","lat":40.749746,"lon":-73.863945,"puma":"3604403","puma_name":"Jackson Heights & East Elmhurst","cuisine":"Latin American","boro":"Queens","rating":null,"price":null,"fsq_id":null},{"name":"Bad Habits","lat":40.761538,"lon":-73.92445,"puma":"3604401","puma_name":"Astoria & Queensbridge","cuisine":"Latin American","boro":"Queens","rating":null,"price":null,"fsq_id":null},{"name":"Bahia Restaurant & Cafe","lat":40.711529,"lon":-73.944931,"puma":"3604301","puma_name":"Williamsburg & Greenpoint","cuisine":"Latin American","boro":"Brooklyn","rating":null,"price":null,"fsq_id":null},{"name":"Baires Grill","lat":40.762981,"lon":-73.987791,"puma":"3604104","puma_name":"Chelsea & Hell's Kitchen","cuisine":"Steakhouse","boro":"Manhattan","rating":null,"price":null,"fsq_id":null},{"name":"Bar Dalia","lat":40.763477,"lon":-73.921665,"puma":"3604401","puma_name":"Astoria & Queensbridge","cuisine":"Latin American","boro":"Queens","rating":null,"price":null,"fsq_id":null},{"name":"Barranquilla Bakery","lat":40.753757,"lon":-73.872029,"puma":"3604403","puma_name":"Jackson Heights & East Elmhurst","cuisine":"Latin American","boro":"Queens","rating":null,"price":null,"fsq_id":null},{"name":"Barrelhouse","lat":40.755582,"lon":-73.88515,"puma":"3604403","puma_name":"Jackson Heights & East Elmhurst","cuisine":"Latin American","boro":"Queens","rating":null,"price":null,"fsq_id":null},{"name":"Barzola","lat":40.750735,"lon":-73.874793,"puma":"3604403","puma_name":"Jackson Heights & East Elmhurst","cuisine":"Latin American","boro":"Queens","rating":null,"price":null,"fsq_id":null},{"name":"Barzola","lat":40.762756,"lon":-73.873922,"puma":"3604403","puma_name":"Jackson Heights & East Elmhurst","cuisine":"Latin American","boro":"Queens","rating":null,"price":null,"fsq_id":null},{"name":"Barzola","lat":40.76117,"lon":-73.92366,"puma":"3604401","puma_name":"Astoria & Queensbridge","cuisine":"Latin American","boro":"Queens","rating":null,"price":null,"fsq_id":null},{"name":"Beefbar New York","lat":40.719389,"lon":-74.00869,"puma":"3604121","puma_name":"Financial District & Greenwich Village","cuisine":"Steakhouse","boro":"Manhattan","rating":null,"price":null,"fsq_id":null},{"name":"Blend (Williamsburg)","lat":40.714603,"lon":-73.966817,"puma":"3604301","puma_name":"Williamsburg & Greenpoint","cuisine":"Latin American","boro":"Brooklyn","rating":null,"price":null,"fsq_id":null},{"name":"Blend Astoria","lat":40.764543,"lon":-73.916371,"puma":"3604401","puma_name":"Astoria & Queensbridge","cuisine":"Latin American","boro":"Queens","rating":null,"price":null,"fsq_id":null},{"name":"Boca Chica Queens","lat":40.751603,"lon":-73.870575,"puma":"3604403","puma_name":"Jackson Heights & East Elmhurst","cuisine":"Latin American","boro":"Queens","rating":null,"price":null,"fsq_id":null},{"name":"Bora Bora","lat":40.748045,"lon":-73.88002,"puma":"3604403","puma_name":"Jackson Heights & East Elmhurst","cuisine":"Latin American","boro":"Queens","rating":null,"price":null,"fsq_id":null},{"name":"Brooklyn Chop House","lat":40.711534,"lon":-74.006027,"puma":"3604121","puma_name":"Financial District & Greenwich Village","cuisine":"Steakhouse","boro":"Manhattan","rating":null,"price":null,"fsq_id":null},{"name":"Cafe Bar J.F","lat":40.716747,"lon":-73.951145,"puma":"3604301","puma_name":"Williamsburg & Greenpoint","cuisine":"Latin American","boro":"Brooklyn","rating":null,"price":null,"fsq_id":null},{"name":"Cafe De Colombia Delights","lat":40.760723,"lon":-73.917557,"puma":"3604401","puma_name":"Astoria & Queensbridge","cuisine":"Latin American","boro":"Queens","rating":null,"price":null,"fsq_id":null},{"name":"Cafetales","lat":40.74727,"lon":-73.887402,"puma":"3604403","puma_name":"Jackson Heights & East Elmhurst","cuisine":"Latin American","boro":"Queens","rating":null,"price":null,"fsq_id":null},{"name":"Caffe Valencia","lat":40.714896,"lon":-73.962896,"puma":"3604301","puma_name":"Williamsburg & Greenpoint","cuisine":"Latin American","boro":"Brooklyn","rating":null,"price":null,"fsq_id":null},{"name":"Cali Aji Con Sabor Restaurant","lat":40.762292,"lon":-73.871114,"puma":"3604403","puma_name":"Jackson Heights & East Elmhurst","cuisine":"Latin American","boro":"Queens","rating":null,"price":null,"fsq_id":null},{"name":"Cantina La 87","lat":40.756063,"lon":-73.880583,"puma":"3604403","puma_name":"Jackson Heights & East Elmhurst","cuisine":"Latin American","boro":"Queens","rating":null,"price":null,"fsq_id":null},{"name":"Caribbean Social Club","lat":40.713563,"lon":-73.959026,"puma":"3604301","puma_name":"Williamsburg & Greenpoint","cuisine":"Latin American","boro":"Brooklyn","rating":null,"price":null,"fsq_id":null},{"name":"Caridad Restaurant","lat":40.757337,"lon":-73.868312,"puma":"3604403","puma_name":"Jackson Heights & East Elmhurst","cuisine":"Latin American","boro":"Queens","rating":null,"price":null,"fsq_id":null},{"name":"Casa Ora","lat":40.70801,"lon":-73.943794,"puma":"3604301","puma_name":"Williamsburg & Greenpoint","cuisine":"Latin American","boro":"Brooklyn","rating":null,"price":null,"fsq_id":null},{"name":"Casa Paisa","lat":40.790049,"lon":-73.814279,"puma":"3604407","puma_name":"Flushing, Murray Hill, & Whitestone","cuisine":"Latin American","boro":"Queens","rating":null,"price":null,"fsq_id":null},{"name":"Cavali New York","lat":40.753235,"lon":-73.923669,"puma":"3604401","puma_name":"Astoria & Queensbridge","cuisine":"Steakhouse","boro":"Queens","rating":null,"price":null,"fsq_id":null},{"name":"Chapiyork Deli Grocery And Restaurant","lat":40.750914,"lon":-73.870479,"puma":"3604403","puma_name":"Jackson Heights & East Elmhurst","cuisine":"Latin American","boro":"Queens","rating":null,"price":null,"fsq_id":null},{"name":"Chimi Los Primos Kitchen","lat":40.766568,"lon":-73.905124,"puma":"3604401","puma_name":"Astoria & Queensbridge","cuisine":"Latin American","boro":"Queens","rating":null,"price":null,"fsq_id":null},{"name":"Chipichape Cafe","lat":40.771848,"lon":-73.926244,"puma":"3604401","puma_name":"Astoria & Queensbridge","cuisine":"Latin American","boro":"Queens","rating":null,"price":null,"fsq_id":null},{"name":"Chivito De Oro","lat":40.749941,"lon":-73.882294,"puma":"3604403","puma_name":"Jackson Heights & East Elmhurst","cuisine":"Latin American","boro":"Queens","rating":null,"price":null,"fsq_id":null},{"name":"Christos Steakhouse","lat":40.770454,"lon":-73.907353,"puma":"3604401","puma_name":"Astoria & Queensbridge","cuisine":"Steakhouse","boro":"Queens","rating":null,"price":null,"fsq_id":null},{"name":"Citrico","lat":40.75962,"lon":-73.921789,"puma":"3604401","puma_name":"Astoria & Queensbridge","cuisine":"Latin American","boro":"Queens","rating":null,"price":null,"fsq_id":null},{"name":"Claudia'S","lat":40.71358,"lon":-73.941495,"puma":"3604301","puma_name":"Williamsburg & Greenpoint","cuisine":"Latin American","boro":"Brooklyn","rating":null,"price":null,"fsq_id":null},{"name":"Club Evolution","lat":40.747066,"lon":-73.889322,"puma":"3604403","puma_name":"Jackson Heights & East Elmhurst","cuisine":"Latin American","boro":"Queens","rating":null,"price":null,"fsq_id":null},{"name":"Cocina Del Sur","lat":40.713748,"lon":-73.935987,"puma":"3604301","puma_name":"Williamsburg & Greenpoint","cuisine":"Latin American","boro":"Brooklyn","rating":null,"price":null,"fsq_id":null},{"name":"Coppelia Cuban Luncheonette","lat":40.738784,"lon":-74.000224,"puma":"3604104","puma_name":"Chelsea & Hell's Kitchen","cuisine":"Latin American","boro":"Manhattan","rating":null,"price":null,"fsq_id":null},{"name":"Coquito Blu","lat":40.780816,"lon":-73.802938,"puma":"3604407","puma_name":"Flushing, Murray Hill, & Whitestone","cuisine":"Latin American","boro":"Queens","rating":null,"price":null,"fsq_id":null},{"name":"Corona King Restaurant & Bar","lat":40.752817,"lon":-73.859832,"puma":"3604403","puma_name":"Jackson Heights & East Elmhurst","cuisine":"Latin American","boro":"Queens","rating":null,"price":null,"fsq_id":null},{"name":"Cositas Ricas","lat":40.747371,"lon":-73.88646,"puma":"3604403","puma_name":"Jackson Heights & East Elmhurst","cuisine":"Latin American","boro":"Queens","rating":null,"price":null,"fsq_id":null},{"name":"Counter & Bodega","lat":40.74376,"lon":-73.995897,"puma":"3604104","puma_name":"Chelsea & Hell's Kitchen","cuisine":"Latin American","boro":"Manhattan","rating":null,"price":null,"fsq_id":null},{"name":"Cuba","lat":40.729161,"lon":-73.999033,"puma":"3604121","puma_name":"Financial District & Greenwich Village","cuisine":"Latin American","boro":"Manhattan","rating":null,"price":null,"fsq_id":null},{"name":"Cut By Wolfgang Puck","lat":40.712942,"lon":-74.00948,"puma":"3604121","puma_name":"Financial District & Greenwich Village","cuisine":"Steakhouse","boro":"Manhattan","rating":null,"price":null,"fsq_id":null},{"name":"D'Anna'S Pizza & Deli","lat":40.762755,"lon":-73.796854,"puma":"3604407","puma_name":"Flushing, Murray Hill, & Whitestone","cuisine":"Latin American","boro":"Queens","rating":null,"price":null,"fsq_id":null},{"name":"D'Antigua","lat":40.755767,"lon":-73.883262,"puma":"3604403","puma_name":"Jackson Heights & East Elmhurst","cuisine":"Latin American","boro":"Queens","rating":null,"price":null,"fsq_id":null},{"name":"Daybreak","lat":40.75475,"lon":-73.916745,"puma":"3604401","puma_name":"Astoria & Queensbridge","cuisine":"Latin American","boro":"Queens","rating":null,"price":null,"fsq_id":null},{"name":"Dear Strangers","lat":40.731414,"lon":-74.000357,"puma":"3604121","puma_name":"Financial District & Greenwich Village","cuisine":"Latin American","boro":"Manhattan","rating":null,"price":null,"fsq_id":null},{"name":"Delicias Calenas","lat":40.749072,"lon":-73.870284,"puma":"3604403","puma_name":"Jackson Heights & East Elmhurst","cuisine":"Latin American","boro":"Queens","rating":null,"price":null,"fsq_id":null},{"name":"Delicias Calenas","lat":40.750506,"lon":-73.892994,"puma":"3604403","puma_name":"Jackson Heights & East Elmhurst","cuisine":"Latin American","boro":"Queens","rating":null,"price":null,"fsq_id":null},{"name":"Delicias Calenas Astoria","lat":40.774981,"lon":-73.912076,"puma":"3604401","puma_name":"Astoria & Queensbridge","cuisine":"Latin American","boro":"Queens","rating":null,"price":null,"fsq_id":null},{"name":"Delicias Colombianas","lat":40.749419,"lon":-73.88424,"puma":"3604403","puma_name":"Jackson Heights & East Elmhurst","cuisine":"Latin American","boro":"Queens","rating":null,"price":null,"fsq_id":null},{"name":"Destefano'S Steakhouse","lat":40.714644,"lon":-73.949477,"puma":"3604301","puma_name":"Williamsburg & Greenpoint","cuisine":"Steakhouse","boro":"Brooklyn","rating":null,"price":null,"fsq_id":null},{"name":"Dinastia Ecuadorian Food Ii","lat":40.710644,"lon":-73.963742,"puma":"3604301","puma_name":"Williamsburg & Greenpoint","cuisine":"Latin American","boro":"Brooklyn","rating":null,"price":null,"fsq_id":null},{"name":"Dive Bar Lic","lat":40.755738,"lon":-73.92798,"puma":"3604401","puma_name":"Astoria & Queensbridge","cuisine":"Latin American","boro":"Queens","rating":null,"price":null,"fsq_id":null},{"name":"Donna","lat":40.731609,"lon":-74.001635,"puma":"3604121","puma_name":"Financial District & Greenwich Village","cuisine":"Latin American","boro":"Manhattan","rating":null,"price":null,"fsq_id":null},{"name":"Donohue'S Steak House","lat":40.765513,"lon":-73.96577,"puma":"3604108","puma_name":"Upper East Side & Roosevelt Island","cuisine":"Steakhouse","boro":"Manhattan","rating":null,"price":null,"fsq_id":null},{"name":"Dora'S Caffe","lat":40.750708,"lon":-73.862915,"puma":"3604403","puma_name":"Jackson Heights & East Elmhurst","cuisine":"Latin American","boro":"Queens","rating":null,"price":null,"fsq_id":null},{"name":"Dulce Vida Kitchen","lat":40.775719,"lon":-73.952673,"puma":"3604108","puma_name":"Upper East Side & Roosevelt Island","cuisine":"Latin American","boro":"Manhattan","rating":null,"price":null,"fsq_id":null},{"name":"E Georges Restaurant","lat":40.701501,"lon":-73.942266,"puma":"3604301","puma_name":"Williamsburg & Greenpoint","cuisine":"Latin American","boro":"Brooklyn","rating":null,"price":null,"fsq_id":null},{"name":"E&C Deli & Restaurant Llc.","lat":40.758171,"lon":-73.841945,"puma":"3604407","puma_name":"Flushing, Murray Hill, & Whitestone","cuisine":"Latin American","boro":"Queens","rating":null,"price":null,"fsq_id":null},{"name":"Ecuadorian Food Restaurant","lat":40.756177,"lon":-73.919833,"puma":"3604401","puma_name":"Astoria & Queensbridge","cuisine":"Latin American","boro":"Queens","rating":null,"price":null,"fsq_id":null},{"name":"Ecuadorian Restaurant Ii","lat":40.755375,"lon":-73.927204,"puma":"3604401","puma_name":"Astoria & Queensbridge","cuisine":"Latin American","boro":"Queens","rating":null,"price":null,"fsq_id":null},{"name":"El Abuelo Gozon","lat":40.74736,"lon":-73.886564,"puma":"3604403","puma_name":"Jackson Heights & East Elmhurst","cuisine":"Latin American","boro":"Queens","rating":null,"price":null,"fsq_id":null},{"name":"El Basurero","lat":40.758499,"lon":-73.919364,"puma":"3604401","puma_name":"Astoria & Queensbridge","cuisine":"Latin American","boro":"Queens","rating":null,"price":null,"fsq_id":null},{"name":"El Budare Cafe","lat":40.748151,"lon":-73.879038,"puma":"3604403","puma_name":"Jackson Heights & East Elmhurst","cuisine":"Latin American","boro":"Queens","rating":null,"price":null,"fsq_id":null},{"name":"El Cangrejal Restaurant","lat":40.752574,"lon":-73.867047,"puma":"3604403","puma_name":"Jackson Heights & East Elmhurst","cuisine":"Latin American","boro":"Queens","rating":null,"price":null,"fsq_id":null},{"name":"El Changaro","lat":40.753052,"lon":-73.865187,"puma":"3604403","puma_name":"Jackson Heights & East Elmhurst","cuisine":"Latin American","boro":"Queens","rating":null,"price":null,"fsq_id":null},{"name":"El Cocinerito","lat":40.748075,"lon":-73.879738,"puma":"3604403","puma_name":"Jackson Heights & East Elmhurst","cuisine":"Latin American","boro":"Queens","rating":null,"price":null,"fsq_id":null},{"name":"El Emperador Elias","lat":40.708724,"lon":-73.958794,"puma":"3604301","puma_name":"Williamsburg & Greenpoint","cuisine":"Latin American","boro":"Brooklyn","rating":null,"price":null,"fsq_id":null},{"name":"El Encebollado De Victor 2","lat":40.748627,"lon":-73.874537,"puma":"3604403","puma_name":"Jackson Heights & East Elmhurst","cuisine":"Latin American","boro":"Queens","rating":null,"price":null,"fsq_id":null},{"name":"El Encebollado De Victor 3","lat":40.757851,"lon":-73.859864,"puma":"3604403","puma_name":"Jackson Heights & East Elmhurst","cuisine":"Latin American","boro":"Queens","rating":null,"price":null,"fsq_id":null},{"name":"El Encuentro","lat":40.750547,"lon":-73.862038,"puma":"3604403","puma_name":"Jackson Heights & East Elmhurst","cuisine":"Latin American","boro":"Queens","rating":null,"price":null,"fsq_id":null},{"name":"El Manatial","lat":40.75014,"lon":-73.860725,"puma":"3604403","puma_name":"Jackson Heights & East Elmhurst","cuisine":"Latin American","boro":"Queens","rating":null,"price":null,"fsq_id":null},{"name":"El Nuevo Rancho Latino","lat":40.752853,"lon":-73.864249,"puma":"3604403","puma_name":"Jackson Heights & East Elmhurst","cuisine":"Latin American","boro":"Queens","rating":null,"price":null,"fsq_id":null},{"name":"El Paisa Bar","lat":40.756066,"lon":-73.880554,"puma":"3604403","puma_name":"Jackson Heights & East Elmhurst","cuisine":"Latin American","boro":"Queens","rating":null,"price":null,"fsq_id":null},{"name":"El Paso","lat":40.752736,"lon":-73.872555,"puma":"3604403","puma_name":"Jackson Heights & East Elmhurst","cuisine":"Latin American","boro":"Queens","rating":null,"price":null,"fsq_id":null},{"name":"El Perro","lat":40.755381,"lon":-73.886912,"puma":"3604403","puma_name":"Jackson Heights & East Elmhurst","cuisine":"Latin American","boro":"Queens","rating":null,"price":null,"fsq_id":null},{"name":"El Ranchito De Daisy Salvadoreno","lat":40.761515,"lon":-73.813409,"puma":"3604407","puma_name":"Flushing, Murray Hill, & Whitestone","cuisine":"Latin American","boro":"Queens","rating":null,"price":null,"fsq_id":null},{"name":"El Rumbero","lat":40.755577,"lon":-73.8852,"puma":"3604403","puma_name":"Jackson Heights & East Elmhurst","cuisine":"Latin American","boro":"Queens","rating":null,"price":null,"fsq_id":null},{"name":"El Tucanazo","lat":40.74736,"lon":-73.88655,"puma":"3604403","puma_name":"Jackson Heights & East Elmhurst","cuisine":"Latin American","boro":"Queens","rating":null,"price":null,"fsq_id":null},{"name":"El Vincentino Restaurante Salvadoreno","lat":40.758333,"lon":-73.80425,"puma":"3604407","puma_name":"Flushing, Murray Hill, & Whitestone","cuisine":"Latin American","boro":"Queens","rating":null,"price":null,"fsq_id":null},{"name":"Empanada Mama To-Go","lat":40.769571,"lon":-73.954717,"puma":"3604108","puma_name":"Upper East Side & Roosevelt Island","cuisine":"Latin American","boro":"Manhattan","rating":null,"price":null,"fsq_id":null},{"name":"Empanadas El Gustazo Restaurante","lat":40.754503,"lon":-73.833046,"puma":"3604407","puma_name":"Flushing, Murray Hill, & Whitestone","cuisine":"Latin American","boro":"Queens","rating":null,"price":null,"fsq_id":null},{"name":"Escola'S","lat":40.756131,"lon":-73.928817,"puma":"3604401","puma_name":"Astoria & Queensbridge","cuisine":"Latin American","boro":"Queens","rating":null,"price":null,"fsq_id":null},{"name":"Estancia 460","lat":40.723729,"lon":-74.009492,"puma":"3604121","puma_name":"Financial District & Greenwich Village","cuisine":"Latin American","boro":"Manhattan","rating":null,"price":null,"fsq_id":null},{"name":"Estrella Latina","lat":40.750517,"lon":-73.862024,"puma":"3604403","puma_name":"Jackson Heights & East Elmhurst","cuisine":"Latin American","boro":"Queens","rating":null,"price":null,"fsq_id":null},{"name":"Exquisito","lat":40.759769,"lon":-73.936581,"puma":"3604401","puma_name":"Astoria & Queensbridge","cuisine":"Latin American","boro":"Queens","rating":null,"price":null,"fsq_id":null},{"name":"Fabrika","lat":40.755381,"lon":-73.886926,"puma":"3604403","puma_name":"Jackson Heights & East Elmhurst","cuisine":"Latin American","boro":"Queens","rating":null,"price":null,"fsq_id":null},{"name":"Flavors Corner","lat":40.755528,"lon":-73.945454,"puma":"3604401","puma_name":"Astoria & Queensbridge","cuisine":"Latin American","boro":"Queens","rating":null,"price":null,"fsq_id":null},{"name":"Forsyth Fire Escape","lat":40.750927,"lon":-74.005955,"puma":"3604104","puma_name":"Chelsea & Hell's Kitchen","cuisine":"Latin American","boro":"Manhattan","rating":null,"price":null,"fsq_id":null},{"name":"Frankie & Johnnie'S Steakhouse","lat":40.760129,"lon":-73.988759,"puma":"3604104","puma_name":"Chelsea & Hell's Kitchen","cuisine":"Steakhouse","boro":"Manhattan","rating":null,"price":null,"fsq_id":null},{"name":"Friend'S Tavern","lat":40.747268,"lon":-73.887442,"puma":"3604403","puma_name":"Jackson Heights & East Elmhurst","cuisine":"Latin American","boro":"Queens","rating":null,"price":null,"fsq_id":null},{"name":"Galicia","lat":40.755658,"lon":-73.884284,"puma":"3604403","puma_name":"Jackson Heights & East Elmhurst","cuisine":"Latin American","boro":"Queens","rating":null,"price":null,"fsq_id":null},{"name":"Gata Golosa","lat":40.750447,"lon":-73.877666,"puma":"3604403","puma_name":"Jackson Heights & East Elmhurst","cuisine":"Latin American","boro":"Queens","rating":null,"price":null,"fsq_id":null},{"name":"Gata Golosa","lat":40.762231,"lon":-73.925966,"puma":"3604401","puma_name":"Astoria & Queensbridge","cuisine":"Latin American","boro":"Queens","rating":null,"price":null,"fsq_id":null},{"name":"Gemini'S Ii Restaurant","lat":40.705465,"lon":-73.942909,"puma":"3604301","puma_name":"Williamsburg & Greenpoint","cuisine":"Latin American","boro":"Brooklyn","rating":null,"price":null,"fsq_id":null},{"name":"Goat Bakeshop","lat":40.72069,"lon":-73.99675,"puma":"3604121","puma_name":"Financial District & Greenwich Village","cuisine":"Latin American","boro":"Manhattan","rating":null,"price":null,"fsq_id":null},{"name":"Gramercy Cafe","lat":40.759448,"lon":-73.918594,"puma":"3604401","puma_name":"Astoria & Queensbridge","cuisine":"Latin American","boro":"Queens","rating":null,"price":null,"fsq_id":null},{"name":"Grand Morelos","lat":40.711671,"lon":-73.943607,"puma":"3604301","puma_name":"Williamsburg & Greenpoint","cuisine":"Latin American","boro":"Brooklyn","rating":null,"price":null,"fsq_id":null},{"name":"Grano De Cafe","lat":40.757139,"lon":-73.870196,"puma":"3604403","puma_name":"Jackson Heights & East Elmhurst","cuisine":"Latin American","boro":"Queens","rating":null,"price":null,"fsq_id":null},{"name":"Guantanamera","lat":40.765728,"lon":-73.983603,"puma":"3604104","puma_name":"Chelsea & Hell's Kitchen","cuisine":"Latin American","boro":"Manhattan","rating":null,"price":null,"fsq_id":null},{"name":"Guarapo","lat":40.717622,"lon":-73.963442,"puma":"3604301","puma_name":"Williamsburg & Greenpoint","cuisine":"Latin American","boro":"Brooklyn","rating":null,"price":null,"fsq_id":null},{"name":"Gury'S Market","lat":40.746873,"lon":-73.891174,"puma":"3604403","puma_name":"Jackson Heights & East Elmhurst","cuisine":"Latin American","boro":"Queens","rating":null,"price":null,"fsq_id":null},{"name":"Gusto Latino","lat":40.716283,"lon":-73.957224,"puma":"3604301","puma_name":"Williamsburg & Greenpoint","cuisine":"Latin American","boro":"Brooklyn","rating":null,"price":null,"fsq_id":null},{"name":"Hairo'S","lat":40.747556,"lon":-73.884666,"puma":"3604403","puma_name":"Jackson Heights & East Elmhurst","cuisine":"Latin American","boro":"Queens","rating":null,"price":null,"fsq_id":null},{"name":"Havana Social","lat":40.704331,"lon":-74.01034,"puma":"3604121","puma_name":"Financial District & Greenwich Village","cuisine":"Latin American","boro":"Manhattan","rating":null,"price":null,"fsq_id":null},{"name":"Hombres Lounge","lat":40.750061,"lon":-73.881193,"puma":"3604403","puma_name":"Jackson Heights & East Elmhurst","cuisine":"Latin American","boro":"Queens","rating":null,"price":null,"fsq_id":null},{"name":"Hoy Se Bebe","lat":40.747265,"lon":-73.88747,"puma":"3604403","puma_name":"Jackson Heights & East Elmhurst","cuisine":"Latin American","boro":"Queens","rating":null,"price":null,"fsq_id":null},{"name":"I Love Paraguay Cafe","lat":40.784035,"lon":-73.845805,"puma":"3604407","puma_name":"Flushing, Murray Hill, & Whitestone","cuisine":"Latin American","boro":"Queens","rating":null,"price":null,"fsq_id":null},{"name":"Il Mulino Prime","lat":40.722173,"lon":-74.003925,"puma":"3604121","puma_name":"Financial District & Greenwich Village","cuisine":"Steakhouse","boro":"Manhattan","rating":null,"price":null,"fsq_id":null},{"name":"Inca Paisa","lat":40.773244,"lon":-73.796035,"puma":"3604407","puma_name":"Flushing, Murray Hill, & Whitestone","cuisine":"Latin American","boro":"Queens","rating":null,"price":null,"fsq_id":null},{"name":"Inca Paisa Ii","lat":40.765105,"lon":-73.931471,"puma":"3604401","puma_name":"Astoria & Queensbridge","cuisine":"Latin American","boro":"Queens","rating":null,"price":null,"fsq_id":null},{"name":"J.A Coffee Shop","lat":40.753155,"lon":-73.927809,"puma":"3604401","puma_name":"Astoria & Queensbridge","cuisine":"Latin American","boro":"Queens","rating":null,"price":null,"fsq_id":null},{"name":"Jakaru","lat":40.750864,"lon":-73.858273,"puma":"3604403","puma_name":"Jackson Heights & East Elmhurst","cuisine":"Latin American","boro":"Queens","rating":null,"price":null,"fsq_id":null},{"name":"Juliza Colombian & Latin Fusion","lat":40.782953,"lon":-73.845858,"puma":"3604407","puma_name":"Flushing, Murray Hill, & Whitestone","cuisine":"Latin American","boro":"Queens","rating":null,"price":null,"fsq_id":null},{"name":"Junction Seafood Restaurant","lat":40.753641,"lon":-73.871972,"puma":"3604403","puma_name":"Jackson Heights & East Elmhurst","cuisine":"Latin American","boro":"Queens","rating":null,"price":null,"fsq_id":null},{"name":"Kabu","lat":40.755889,"lon":-73.88224,"puma":"3604403","puma_name":"Jackson Heights & East Elmhurst","cuisine":"Latin American","boro":"Queens","rating":null,"price":null,"fsq_id":null},{"name":"Kafra'S Bakery","lat":40.749955,"lon":-73.882164,"puma":"3604403","puma_name":"Jackson Heights & East Elmhurst","cuisine":"Latin American","boro":"Queens","rating":null,"price":null,"fsq_id":null},{"name":"Knickerbocker Bar & Grill","lat":40.731969,"lon":-73.994451,"puma":"3604121","puma_name":"Financial District & Greenwich Village","cuisine":"Steakhouse","boro":"Manhattan","rating":null,"price":null,"fsq_id":null},{"name":"Kween","lat":40.765673,"lon":-73.918818,"puma":"3604401","puma_name":"Astoria & Queensbridge","cuisine":"Latin American","boro":"Queens","rating":null,"price":null,"fsq_id":null},{"name":"La Autentica Ambatenita Bakery","lat":40.748863,"lon":-73.872266,"puma":"3604403","puma_name":"Jackson Heights & East Elmhurst","cuisine":"Latin American","boro":"Queens","rating":null,"price":null,"fsq_id":null},{"name":"La Boina Roja","lat":40.749566,"lon":-73.885882,"puma":"3604403","puma_name":"Jackson Heights & East Elmhurst","cuisine":"Steakhouse","boro":"Queens","rating":null,"price":null,"fsq_id":null},{"name":"La Brisa Del Cibao","lat":40.752743,"lon":-73.864167,"puma":"3604403","puma_name":"Jackson Heights & East Elmhurst","cuisine":"Latin American","boro":"Queens","rating":null,"price":null,"fsq_id":null},{"name":"La Cabana","lat":40.750455,"lon":-73.862987,"puma":"3604403","puma_name":"Jackson Heights & East Elmhurst","cuisine":"Latin American","boro":"Queens","rating":null,"price":null,"fsq_id":null},{"name":"La Cabana Argentinian Steakhouse","lat":40.755971,"lon":-73.881471,"puma":"3604403","puma_name":"Jackson Heights & East Elmhurst","cuisine":"Steakhouse","boro":"Queens","rating":null,"price":null,"fsq_id":null},{"name":"La Casa Del Cuy Asado","lat":40.757732,"lon":-73.863543,"puma":"3604403","puma_name":"Jackson Heights & East Elmhurst","cuisine":"Latin American","boro":"Queens","rating":null,"price":null,"fsq_id":null},{"name":"La Casa Del Sabor","lat":40.75965,"lon":-73.920471,"puma":"3604401","puma_name":"Astoria & Queensbridge","cuisine":"Latin American","boro":"Queens","rating":null,"price":null,"fsq_id":null},{"name":"La Choza Del Gordo","lat":40.752858,"lon":-73.922399,"puma":"3604401","puma_name":"Astoria & Queensbridge","cuisine":"Latin American","boro":"Queens","rating":null,"price":null,"fsq_id":null},{"name":"La Cocina Ii","lat":40.703842,"lon":-73.94155,"puma":"3604301","puma_name":"Williamsburg & Greenpoint","cuisine":"Latin American","boro":"Brooklyn","rating":null,"price":null,"fsq_id":null},{"name":"La Cocinita Mia","lat":40.710098,"lon":-73.948708,"puma":"3604301","puma_name":"Williamsburg & Greenpoint","cuisine":"Latin American","boro":"Brooklyn","rating":null,"price":null,"fsq_id":null},{"name":"La Deportiva Restaurant","lat":40.767253,"lon":-73.820909,"puma":"3604407","puma_name":"Flushing, Murray Hill, & Whitestone","cuisine":"Latin American","boro":"Queens","rating":null,"price":null,"fsq_id":null},{"name":"La Elegancia","lat":40.750352,"lon":-73.878417,"puma":"3604403","puma_name":"Jackson Heights & East Elmhurst","cuisine":"Latin American","boro":"Queens","rating":null,"price":null,"fsq_id":null},{"name":"La Esquina De Don Mario","lat":40.784647,"lon":-73.845779,"puma":"3604407","puma_name":"Flushing, Murray Hill, & Whitestone","cuisine":"Latin American","boro":"Queens","rating":null,"price":null,"fsq_id":null},{"name":"La Esquina Del Sabor","lat":40.757245,"lon":-73.869352,"puma":"3604403","puma_name":"Jackson Heights & East Elmhurst","cuisine":"Latin American","boro":"Queens","rating":null,"price":null,"fsq_id":null},{"name":"La Gitana #4","lat":40.750567,"lon":-73.87654,"puma":"3604403","puma_name":"Jackson Heights & East Elmhurst","cuisine":"Latin American","boro":"Queens","rating":null,"price":null,"fsq_id":null},{"name":"La Guardia Cafe","lat":40.768432,"lon":-73.873239,"puma":"3604403","puma_name":"Jackson Heights & East Elmhurst","cuisine":"Latin American","boro":"Queens","rating":null,"price":null,"fsq_id":null},{"name":"La Guira","lat":40.724651,"lon":-73.997413,"puma":"3604121","puma_name":"Financial District & Greenwich Village","cuisine":"Latin American","boro":"Manhattan","rating":null,"price":null,"fsq_id":null},{"name":"La Hacienda Al Zapote","lat":40.767309,"lon":-73.813216,"puma":"3604407","puma_name":"Flushing, Murray Hill, & Whitestone","cuisine":"Latin American","boro":"Queens","rating":null,"price":null,"fsq_id":null},{"name":"La Hueca","lat":40.750852,"lon":-73.873814,"puma":"3604403","puma_name":"Jackson Heights & East Elmhurst","cuisine":"Latin American","boro":"Queens","rating":null,"price":null,"fsq_id":null},{"name":"La Isla","lat":40.70854,"lon":-73.958221,"puma":"3604301","puma_name":"Williamsburg & Greenpoint","cuisine":"Latin American","boro":"Brooklyn","rating":null,"price":null,"fsq_id":null},{"name":"La Kuchara","lat":40.760576,"lon":-73.873269,"puma":"3604403","puma_name":"Jackson Heights & East Elmhurst","cuisine":"Latin American","boro":"Queens","rating":null,"price":null,"fsq_id":null},{"name":"La Luz Del Puente","lat":40.710453,"lon":-73.959057,"puma":"3604301","puma_name":"Williamsburg & Greenpoint","cuisine":"Latin American","boro":"Brooklyn","rating":null,"price":null,"fsq_id":null},{"name":"La Montana","lat":40.757466,"lon":-73.860923,"puma":"3604403","puma_name":"Jackson Heights & East Elmhurst","cuisine":"Latin American","boro":"Queens","rating":null,"price":null,"fsq_id":null},{"name":"La Montanita Bar Restaurant","lat":40.757348,"lon":-73.868225,"puma":"3604403","puma_name":"Jackson Heights & East Elmhurst","cuisine":"Latin American","boro":"Queens","rating":null,"price":null,"fsq_id":null},{"name":"La Morenita Ecuatoriana","lat":40.757343,"lon":-73.868268,"puma":"3604403","puma_name":"Jackson Heights & East Elmhurst","cuisine":"Latin American","boro":"Queens","rating":null,"price":null,"fsq_id":null},{"name":"La Nueva 90 Bakery","lat":40.750114,"lon":-73.876811,"puma":"3604403","puma_name":"Jackson Heights & East Elmhurst","cuisine":"Latin American","boro":"Queens","rating":null,"price":null,"fsq_id":null},{"name":"La Nueva Amistad Bakery And Restaurant","lat":40.761721,"lon":-73.803254,"puma":"3604407","puma_name":"Flushing, Murray Hill, & Whitestone","cuisine":"Latin American","boro":"Queens","rating":null,"price":null,"fsq_id":null},{"name":"La Nueva Colombia","lat":40.760133,"lon":-73.877489,"puma":"3604403","puma_name":"Jackson Heights & East Elmhurst","cuisine":"Latin American","boro":"Queens","rating":null,"price":null,"fsq_id":null},{"name":"La Nueva Delicia","lat":40.750833,"lon":-73.87384,"puma":"3604403","puma_name":"Jackson Heights & East Elmhurst","cuisine":"Latin American","boro":"Queens","rating":null,"price":null,"fsq_id":null},{"name":"La Pequena Colombia","lat":40.747792,"lon":-73.882446,"puma":"3604403","puma_name":"Jackson Heights & East Elmhurst","cuisine":"Latin American","boro":"Queens","rating":null,"price":null,"fsq_id":null},{"name":"La Perrada De Chalo","lat":40.755666,"lon":-73.884219,"puma":"3604403","puma_name":"Jackson Heights & East Elmhurst","cuisine":"Latin American","boro":"Queens","rating":null,"price":null,"fsq_id":null},{"name":"La Ricura Restaurant Bakery","lat":40.750659,"lon":-73.875659,"puma":"3604403","puma_name":"Jackson Heights & East Elmhurst","cuisine":"Latin American","boro":"Queens","rating":null,"price":null,"fsq_id":null},{"name":"La Sabrosura","lat":40.766028,"lon":-73.919554,"puma":"3604401","puma_name":"Astoria & Queensbridge","cuisine":"Latin American","boro":"Queens","rating":null,"price":null,"fsq_id":null},{"name":"La Sazon De La China","lat":40.756965,"lon":-73.872023,"puma":"3604403","puma_name":"Jackson Heights & East Elmhurst","cuisine":"Latin American","boro":"Queens","rating":null,"price":null,"fsq_id":null},{"name":"La Vecina","lat":40.762315,"lon":-73.916288,"puma":"3604401","puma_name":"Astoria & Queensbridge","cuisine":"Latin American","boro":"Queens","rating":null,"price":null,"fsq_id":null},{"name":"Las Margaritas","lat":40.759292,"lon":-73.919674,"puma":"3604401","puma_name":"Astoria & Queensbridge","cuisine":"Latin American","boro":"Queens","rating":null,"price":null,"fsq_id":null},{"name":"Las Margaritas Restaurant & Sports Bar","lat":40.74986,"lon":-73.883092,"puma":"3604403","puma_name":"Jackson Heights & East Elmhurst","cuisine":"Latin American","boro":"Queens","rating":null,"price":null,"fsq_id":null},{"name":"Las Perlas Salvadoreno Restaurante","lat":40.753882,"lon":-73.806548,"puma":"3604407","puma_name":"Flushing, Murray Hill, & Whitestone","cuisine":"Latin American","boro":"Queens","rating":null,"price":null,"fsq_id":null},{"name":"Las Tainas","lat":40.707732,"lon":-73.955931,"puma":"3604301","puma_name":"Williamsburg & Greenpoint","cuisine":"Latin American","boro":"Brooklyn","rating":null,"price":null,"fsq_id":null},{"name":"Las Tres","lat":40.786104,"lon":-73.837235,"puma":"3604407","puma_name":"Flushing, Murray Hill, & Whitestone","cuisine":"Latin American","boro":"Queens","rating":null,"price":null,"fsq_id":null},{"name":"Latin Bakery","lat":40.757112,"lon":-73.828961,"puma":"3604407","puma_name":"Flushing, Murray Hill, & Whitestone","cuisine":"Latin American","boro":"Queens","rating":null,"price":null,"fsq_id":null},{"name":"Latino Bites","lat":40.755781,"lon":-73.883276,"puma":"3604403","puma_name":"Jackson Heights & East Elmhurst","cuisine":"Latin American","boro":"Queens","rating":null,"price":null,"fsq_id":null},{"name":"Lechoneria New York Ii","lat":40.755783,"lon":-73.883262,"puma":"3604403","puma_name":"Jackson Heights & East Elmhurst","cuisine":"Latin American","boro":"Queens","rating":null,"price":null,"fsq_id":null},{"name":"Lliana'S Bar Lounge","lat":40.784035,"lon":-73.845805,"puma":"3604407","puma_name":"Flushing, Murray Hill, & Whitestone","cuisine":"Steakhouse","boro":"Queens","rating":null,"price":null,"fsq_id":null},{"name":"Los Chuzos","lat":40.747357,"lon":-73.886579,"puma":"3604403","puma_name":"Jackson Heights & East Elmhurst","cuisine":"Latin American","boro":"Queens","rating":null,"price":null,"fsq_id":null},{"name":"Los Mismos Amigos","lat":40.75,"lon":-73.861379,"puma":"3604403","puma_name":"Jackson Heights & East Elmhurst","cuisine":"Latin American","boro":"Queens","rating":null,"price":null,"fsq_id":null},{"name":"Los Munchies","lat":40.758288,"lon":-73.992719,"puma":"3604104","puma_name":"Chelsea & Hell's Kitchen","cuisine":"Latin American","boro":"Manhattan","rating":null,"price":null,"fsq_id":null},{"name":"Made 21","lat":40.710453,"lon":-73.959057,"puma":"3604301","puma_name":"Williamsburg & Greenpoint","cuisine":"Latin American","boro":"Brooklyn","rating":null,"price":null,"fsq_id":null},{"name":"Mama'S","lat":40.755586,"lon":-73.941923,"puma":"3604401","puma_name":"Astoria & Queensbridge","cuisine":"Latin American","boro":"Queens","rating":null,"price":null,"fsq_id":null},{"name":"Mama'S Empanadas","lat":40.755878,"lon":-73.882359,"puma":"3604403","puma_name":"Jackson Heights & East Elmhurst","cuisine":"Latin American","boro":"Queens","rating":null,"price":null,"fsq_id":null},{"name":"Mama'S Empanadas","lat":40.757733,"lon":-73.919986,"puma":"3604401","puma_name":"Astoria & Queensbridge","cuisine":"Latin American","boro":"Queens","rating":null,"price":null,"fsq_id":null},{"name":"Mangu Grill Restaurant","lat":40.784038,"lon":-73.845805,"puma":"3604407","puma_name":"Flushing, Murray Hill, & Whitestone","cuisine":"Latin American","boro":"Queens","rating":null,"price":null,"fsq_id":null},{"name":"Mark Joseph Steakhouse","lat":40.70841,"lon":-74.001591,"puma":"3604121","puma_name":"Financial District & Greenwich Village","cuisine":"Steakhouse","boro":"Manhattan","rating":null,"price":null,"fsq_id":null},{"name":"Meet The Meat","lat":40.776797,"lon":-73.921306,"puma":"3604401","puma_name":"Astoria & Queensbridge","cuisine":"Steakhouse","boro":"Queens","rating":null,"price":null,"fsq_id":null},{"name":"Mi Cielito Colombiano","lat":40.77075,"lon":-73.903074,"puma":"3604401","puma_name":"Astoria & Queensbridge","cuisine":"Latin American","boro":"Queens","rating":null,"price":null,"fsq_id":null},{"name":"Mi Pequeno El Salvador","lat":40.750955,"lon":-73.872486,"puma":"3604403","puma_name":"Jackson Heights & East Elmhurst","cuisine":"Latin American","boro":"Queens","rating":null,"price":null,"fsq_id":null},{"name":"Milenio","lat":40.751838,"lon":-73.869784,"puma":"3604403","puma_name":"Jackson Heights & East Elmhurst","cuisine":"Latin American","boro":"Queens","rating":null,"price":null,"fsq_id":null},{"name":"Mister Cangrejo","lat":40.747363,"lon":-73.886539,"puma":"3604403","puma_name":"Jackson Heights & East Elmhurst","cuisine":"Latin American","boro":"Queens","rating":null,"price":null,"fsq_id":null},{"name":"Mojitos","lat":40.755476,"lon":-73.886161,"puma":"3604403","puma_name":"Jackson Heights & East Elmhurst","cuisine":"Latin American","boro":"Queens","rating":null,"price":null,"fsq_id":null},{"name":"Montielle Cafe","lat":40.750654,"lon":-73.875699,"puma":"3604403","puma_name":"Jackson Heights & East Elmhurst","cuisine":"Latin American","boro":"Queens","rating":null,"price":null,"fsq_id":null},{"name":"Morton'S The Steakhouse","lat":40.70965,"lon":-74.013844,"puma":"3604121","puma_name":"Financial District & Greenwich Village","cuisine":"Steakhouse","boro":"Manhattan","rating":null,"price":null,"fsq_id":null},{"name":"Mr. Cebas","lat":40.749175,"lon":-73.869281,"puma":"3604403","puma_name":"Jackson Heights & East Elmhurst","cuisine":"Latin American","boro":"Queens","rating":null,"price":null,"fsq_id":null},{"name":"Mr. Dre Kitchen Bar","lat":40.784221,"lon":-73.845628,"puma":"3604407","puma_name":"Flushing, Murray Hill, & Whitestone","cuisine":"Latin American","boro":"Queens","rating":null,"price":null,"fsq_id":null},{"name":"Mr. Mario","lat":40.782981,"lon":-73.845876,"puma":"3604407","puma_name":"Flushing, Murray Hill, & Whitestone","cuisine":"Latin American","boro":"Queens","rating":null,"price":null,"fsq_id":null},{"name":"Nana'S Kitchen","lat":40.76003,"lon":-73.878457,"puma":"3604403","puma_name":"Jackson Heights & East Elmhurst","cuisine":"Latin American","boro":"Queens","rating":null,"price":null,"fsq_id":null},{"name":"Natividad Restaurant","lat":40.752757,"lon":-73.864199,"puma":"3604403","puma_name":"Jackson Heights & East Elmhurst","cuisine":"Latin American","boro":"Queens","rating":null,"price":null,"fsq_id":null},{"name":"New York Al Toque","lat":40.749849,"lon":-73.883186,"puma":"3604403","puma_name":"Jackson Heights & East Elmhurst","cuisine":"Latin American","boro":"Queens","rating":null,"price":null,"fsq_id":null},{"name":"Noches De Colombia","lat":40.729503,"lon":-73.815173,"puma":"3604408","puma_name":"Fresh Meadows, Hillcrest, & Briarwood","cuisine":"Latin American","boro":"Queens","rating":null,"price":null,"fsq_id":null},{"name":"Nueva Ambatenita La Esquina Del Sabor","lat":40.751257,"lon":-73.859055,"puma":"3604403","puma_name":"Jackson Heights & East Elmhurst","cuisine":"Latin American","boro":"Queens","rating":null,"price":null,"fsq_id":null},{"name":"Original Espinal Deli 2","lat":40.753639,"lon":-73.903662,"puma":"3604401","puma_name":"Astoria & Queensbridge","cuisine":"Latin American","boro":"Queens","rating":null,"price":null,"fsq_id":null},{"name":"Otherway Kitchen","lat":40.784848,"lon":-73.846508,"puma":"3604407","puma_name":"Flushing, Murray Hill, & Whitestone","cuisine":"Latin American","boro":"Queens","rating":null,"price":null,"fsq_id":null},{"name":"Outback Steakhouse","lat":40.781666,"lon":-73.775998,"puma":"3604407","puma_name":"Flushing, Murray Hill, & Whitestone","cuisine":"Steakhouse","boro":"Queens","rating":null,"price":null,"fsq_id":null},{"name":"Oven Grill & Chill","lat":40.758121,"lon":-73.917221,"puma":"3604401","puma_name":"Astoria & Queensbridge","cuisine":"Latin American","boro":"Queens","rating":null,"price":null,"fsq_id":null},{"name":"Palermo Argentinian Bistro Nyc","lat":40.760591,"lon":-73.989802,"puma":"3604104","puma_name":"Chelsea & Hell's Kitchen","cuisine":"Latin American","boro":"Manhattan","rating":null,"price":null,"fsq_id":null},{"name":"Palo Bar","lat":40.751314,"lon":-73.862459,"puma":"3604403","puma_name":"Jackson Heights & East Elmhurst","cuisine":"Latin American","boro":"Queens","rating":null,"price":null,"fsq_id":null},{"name":"Pan Fino Cafe Bakery","lat":40.755868,"lon":-73.882442,"puma":"3604403","puma_name":"Jackson Heights & East Elmhurst","cuisine":"Latin American","boro":"Queens","rating":null,"price":null,"fsq_id":null},{"name":"Panorama","lat":40.764143,"lon":-73.88207,"puma":"3604403","puma_name":"Jackson Heights & East Elmhurst","cuisine":"Latin American","boro":"Queens","rating":null,"price":null,"fsq_id":null},{"name":"Para Ti Colombia Con Sabor","lat":40.712213,"lon":-73.788925,"puma":"3604408","puma_name":"Fresh Meadows, Hillcrest, & Briarwood","cuisine":"Latin American","boro":"Queens","rating":null,"price":null,"fsq_id":null},{"name":"Parceros Bakery Ii","lat":40.767177,"lon":-73.921993,"puma":"3604401","puma_name":"Astoria & Queensbridge","cuisine":"Latin American","boro":"Queens","rating":null,"price":null,"fsq_id":null},{"name":"Parlay","lat":40.764928,"lon":-73.91723,"puma":"3604401","puma_name":"Astoria & Queensbridge","cuisine":"Latin American","boro":"Queens","rating":null,"price":null,"fsq_id":null},{"name":"Peter Luger Steakhouse","lat":40.70998,"lon":-73.962512,"puma":"3604301","puma_name":"Williamsburg & Greenpoint","cuisine":"Steakhouse","boro":"Brooklyn","rating":null,"price":null,"fsq_id":null},{"name":"Pica Pica Con Sabor","lat":40.707196,"lon":-73.954409,"puma":"3604301","puma_name":"Williamsburg & Greenpoint","cuisine":"Latin American","boro":"Brooklyn","rating":null,"price":null,"fsq_id":null},{"name":"Picanteria El Austro","lat":40.749514,"lon":-73.883334,"puma":"3604403","puma_name":"Jackson Heights & East Elmhurst","cuisine":"Latin American","boro":"Queens","rating":null,"price":null,"fsq_id":null},{"name":"Pimpollo","lat":40.757709,"lon":-73.87413,"puma":"3604403","puma_name":"Jackson Heights & East Elmhurst","cuisine":"Latin American","boro":"Queens","rating":null,"price":null,"fsq_id":null},{"name":"Pio Pio To Go","lat":40.755786,"lon":-73.883237,"puma":"3604403","puma_name":"Jackson Heights & East Elmhurst","cuisine":"Latin American","boro":"Queens","rating":null,"price":null,"fsq_id":null},{"name":"Pio-Pio","lat":40.755756,"lon":-73.883352,"puma":"3604403","puma_name":"Jackson Heights & East Elmhurst","cuisine":"Latin American","boro":"Queens","rating":null,"price":null,"fsq_id":null},{"name":"Poblado Gastrobar","lat":40.74909,"lon":-73.887023,"puma":"3604403","puma_name":"Jackson Heights & East Elmhurst","cuisine":"Latin American","boro":"Queens","rating":null,"price":null,"fsq_id":null},{"name":"Pokito","lat":40.711563,"lon":-73.961999,"puma":"3604301","puma_name":"Williamsburg & Greenpoint","cuisine":"Latin American","boro":"Brooklyn","rating":null,"price":null,"fsq_id":null},{"name":"Pollo Campero","lat":40.755508,"lon":-73.991056,"puma":"3604104","puma_name":"Chelsea & Hell's Kitchen","cuisine":"Latin American","boro":"Manhattan","rating":null,"price":null,"fsq_id":null},{"name":"Pollos A La Barasa Mario","lat":40.758872,"lon":-73.918772,"puma":"3604401","puma_name":"Astoria & Queensbridge","cuisine":"Latin American","boro":"Queens","rating":null,"price":null,"fsq_id":null},{"name":"Pollos A La Brasa Mario","lat":40.749846,"lon":-73.883225,"puma":"3604403","puma_name":"Jackson Heights & East Elmhurst","cuisine":"Latin American","boro":"Queens","rating":null,"price":null,"fsq_id":null},{"name":"Pollos A La Brasa Mario","lat":40.747551,"lon":-73.884716,"puma":"3604403","puma_name":"Jackson Heights & East Elmhurst","cuisine":"Latin American","boro":"Queens","rating":null,"price":null,"fsq_id":null},{"name":"Pollos Mario","lat":40.748053,"lon":-73.879959,"puma":"3604403","puma_name":"Jackson Heights & East Elmhurst","cuisine":"Latin American","boro":"Queens","rating":null,"price":null,"fsq_id":null},{"name":"Pollos Pepa","lat":40.761946,"lon":-73.869068,"puma":"3604403","puma_name":"Jackson Heights & East Elmhurst","cuisine":"Latin American","boro":"Queens","rating":null,"price":null,"fsq_id":null},{"name":"Polygon","lat":40.71547,"lon":-73.93394,"puma":"3604301","puma_name":"Williamsburg & Greenpoint","cuisine":"Latin American","boro":"Brooklyn","rating":null,"price":null,"fsq_id":null},{"name":"Prime Met Steakhouse & Rooftop Lounge","lat":40.760605,"lon":-73.833641,"puma":"3604407","puma_name":"Flushing, Murray Hill, & Whitestone","cuisine":"Steakhouse","boro":"Queens","rating":null,"price":null,"fsq_id":null},{"name":"Princesa Bakery & Restaurant","lat":40.704301,"lon":-73.942693,"puma":"3604301","puma_name":"Williamsburg & Greenpoint","cuisine":"Latin American","boro":"Brooklyn","rating":null,"price":null,"fsq_id":null},{"name":"Pueblo Querido Coffee","lat":40.749956,"lon":-73.935858,"puma":"3604401","puma_name":"Astoria & Queensbridge","cuisine":"Latin American","boro":"Queens","rating":null,"price":null,"fsq_id":null},{"name":"Que Rico","lat":40.758576,"lon":-73.919328,"puma":"3604401","puma_name":"Astoria & Queensbridge","cuisine":"Latin American","boro":"Queens","rating":null,"price":null,"fsq_id":null},{"name":"Queens Coffee Shop","lat":40.750861,"lon":-73.858284,"puma":"3604403","puma_name":"Jackson Heights & East Elmhurst","cuisine":"Latin American","boro":"Queens","rating":null,"price":null,"fsq_id":null},{"name":"Quijote","lat":40.756496,"lon":-73.929603,"puma":"3604401","puma_name":"Astoria & Queensbridge","cuisine":"Latin American","boro":"Queens","rating":null,"price":null,"fsq_id":null},{"name":"Quitenita Bakery Restaurant","lat":40.752076,"lon":-73.8689,"puma":"3604403","puma_name":"Jackson Heights & East Elmhurst","cuisine":"Latin American","boro":"Queens","rating":null,"price":null,"fsq_id":null},{"name":"Raices Colombianas","lat":40.75014,"lon":-73.880439,"puma":"3604403","puma_name":"Jackson Heights & East Elmhurst","cuisine":"Latin American","boro":"Queens","rating":null,"price":null,"fsq_id":null},{"name":"Ramonita'S","lat":40.703872,"lon":-73.941215,"puma":"3604301","puma_name":"Williamsburg & Greenpoint","cuisine":"Latin American","boro":"Brooklyn","rating":null,"price":null,"fsq_id":null},{"name":"Republic Latin Fusion","lat":40.718952,"lon":-73.954383,"puma":"3604301","puma_name":"Williamsburg & Greenpoint","cuisine":"Latin American","boro":"Brooklyn","rating":null,"price":null,"fsq_id":null},{"name":"Rico'S Chicken Pollos A La Brasa","lat":40.754898,"lon":-73.816734,"puma":"3604407","puma_name":"Flushing, Murray Hill, & Whitestone","cuisine":"Latin American","boro":"Queens","rating":null,"price":null,"fsq_id":null},{"name":"Rincon Latino","lat":40.750472,"lon":-73.86302,"puma":"3604403","puma_name":"Jackson Heights & East Elmhurst","cuisine":"Latin American","boro":"Queens","rating":null,"price":null,"fsq_id":null},{"name":"S-Meat & Hueso","lat":40.757339,"lon":-73.929144,"puma":"3604401","puma_name":"Astoria & Queensbridge","cuisine":"Latin American","boro":"Queens","rating":null,"price":null,"fsq_id":null},{"name":"Sabor Hispano","lat":40.752825,"lon":-73.86421,"puma":"3604403","puma_name":"Jackson Heights & East Elmhurst","cuisine":"Latin American","boro":"Queens","rating":null,"price":null,"fsq_id":null},{"name":"Sabor Latino","lat":40.710719,"lon":-73.951089,"puma":"3604301","puma_name":"Williamsburg & Greenpoint","cuisine":"Latin American","boro":"Brooklyn","rating":null,"price":null,"fsq_id":null},{"name":"Sabor Restaurant & Bakery","lat":40.784032,"lon":-73.845827,"puma":"3604407","puma_name":"Flushing, Murray Hill, & Whitestone","cuisine":"Latin American","boro":"Queens","rating":null,"price":null,"fsq_id":null},{"name":"Salvaje Social Club","lat":40.755288,"lon":-73.887951,"puma":"3604403","puma_name":"Jackson Heights & East Elmhurst","cuisine":"Latin American","boro":"Queens","rating":null,"price":null,"fsq_id":null},{"name":"Salvatoria Kitchen & Bar","lat":40.761854,"lon":-73.925168,"puma":"3604401","puma_name":"Astoria & Queensbridge","cuisine":"Latin American","boro":"Queens","rating":null,"price":null,"fsq_id":null},{"name":"Sandro'S Latin Food","lat":40.775952,"lon":-73.915115,"puma":"3604401","puma_name":"Astoria & Queensbridge","cuisine":"Latin American","boro":"Queens","rating":null,"price":null,"fsq_id":null},{"name":"Satori Burgers","lat":40.760136,"lon":-73.87745,"puma":"3604403","puma_name":"Jackson Heights & East Elmhurst","cuisine":"Latin American","boro":"Queens","rating":null,"price":null,"fsq_id":null},{"name":"Sazon Perez","lat":40.707588,"lon":-73.951087,"puma":"3604301","puma_name":"Williamsburg & Greenpoint","cuisine":"Latin American","boro":"Brooklyn","rating":null,"price":null,"fsq_id":null},{"name":"Seba Seba","lat":40.749474,"lon":-73.88677,"puma":"3604403","puma_name":"Jackson Heights & East Elmhurst","cuisine":"Latin American","boro":"Queens","rating":null,"price":null,"fsq_id":null},{"name":"Seba- Seba Bakery","lat":40.755675,"lon":-73.884287,"puma":"3604403","puma_name":"Jackson Heights & East Elmhurst","cuisine":"Latin American","boro":"Queens","rating":null,"price":null,"fsq_id":null},{"name":"Seguidilla Dominican Bistro","lat":40.76484,"lon":-73.990213,"puma":"3604104","puma_name":"Chelsea & Hell's Kitchen","cuisine":"Latin American","boro":"Manhattan","rating":null,"price":null,"fsq_id":null},{"name":"Sheli","lat":40.705715,"lon":-73.950742,"puma":"3604301","puma_name":"Williamsburg & Greenpoint","cuisine":"Latin American","boro":"Brooklyn","rating":null,"price":null,"fsq_id":null},{"name":"Sol Boulevard","lat":40.756069,"lon":-73.880543,"puma":"3604403","puma_name":"Jackson Heights & East Elmhurst","cuisine":"Latin American","boro":"Queens","rating":null,"price":null,"fsq_id":null},{"name":"Sophie'S Cuban Cuisine","lat":40.76514,"lon":-73.957619,"puma":"3604108","puma_name":"Upper East Side & Roosevelt Island","cuisine":"Latin American","boro":"Manhattan","rating":null,"price":null,"fsq_id":null},{"name":"Sophie'S Cuban Cuisine","lat":40.765948,"lon":-73.983444,"puma":"3604104","puma_name":"Chelsea & Hell's Kitchen","cuisine":"Latin American","boro":"Manhattan","rating":null,"price":null,"fsq_id":null},{"name":"Sophie'S Cuban Cuisine","lat":40.709025,"lon":-74.005439,"puma":"3604121","puma_name":"Financial District & Greenwich Village","cuisine":"Latin American","boro":"Manhattan","rating":null,"price":null,"fsq_id":null},{"name":"Sophie'S Cuban Cuisine","lat":40.715991,"lon":-74.004787,"puma":"3604121","puma_name":"Financial District & Greenwich Village","cuisine":"Latin American","boro":"Manhattan","rating":null,"price":null,"fsq_id":null},{"name":"St. Anselm","lat":40.714122,"lon":-73.956111,"puma":"3604301","puma_name":"Williamsburg & Greenpoint","cuisine":"Steakhouse","boro":"Brooklyn","rating":null,"price":null,"fsq_id":null},{"name":"Stadium Deli","lat":40.760497,"lon":-73.842922,"puma":"3604407","puma_name":"Flushing, Murray Hill, & Whitestone","cuisine":"Latin American","boro":"Queens","rating":null,"price":null,"fsq_id":null},{"name":"Stk Steakhouse Downtown","lat":40.740019,"lon":-74.007311,"puma":"3604121","puma_name":"Financial District & Greenwich Village","cuisine":"Steakhouse","boro":"Manhattan","rating":null,"price":null,"fsq_id":null},{"name":"Strip House","lat":40.734335,"lon":-73.993772,"puma":"3604121","puma_name":"Financial District & Greenwich Village","cuisine":"Steakhouse","boro":"Manhattan","rating":null,"price":null,"fsq_id":null},{"name":"Sunshine Coffee","lat":40.759972,"lon":-73.94144,"puma":"3604401","puma_name":"Astoria & Queensbridge","cuisine":"Latin American","boro":"Queens","rating":null,"price":null,"fsq_id":null},{"name":"Tabare","lat":40.712957,"lon":-73.959095,"puma":"3604301","puma_name":"Williamsburg & Greenpoint","cuisine":"Latin American","boro":"Brooklyn","rating":null,"price":null,"fsq_id":null},{"name":"Tabernacle Steakhouse","lat":40.753778,"lon":-73.993229,"puma":"3604104","puma_name":"Chelsea & Hell's Kitchen","cuisine":"Steakhouse","boro":"Manhattan","rating":null,"price":null,"fsq_id":null},{"name":"Tabu","lat":40.713771,"lon":-73.957467,"puma":"3604301","puma_name":"Williamsburg & Greenpoint","cuisine":"Latin American","boro":"Brooklyn","rating":null,"price":null,"fsq_id":null},{"name":"Tapas 54","lat":40.766171,"lon":-73.987545,"puma":"3604104","puma_name":"Chelsea & Hell's Kitchen","cuisine":"Latin American","boro":"Manhattan","rating":null,"price":null,"fsq_id":null},{"name":"Tauro Restaurant","lat":40.725425,"lon":-74.007616,"puma":"3604121","puma_name":"Financial District & Greenwich Village","cuisine":"Latin American","boro":"Manhattan","rating":null,"price":null,"fsq_id":null},{"name":"The Cactus Shop","lat":40.716725,"lon":-73.965546,"puma":"3604301","puma_name":"Williamsburg & Greenpoint","cuisine":"Latin American","boro":"Brooklyn","rating":null,"price":null,"fsq_id":null},{"name":"The Freakin Rican","lat":40.755471,"lon":-73.918321,"puma":"3604401","puma_name":"Astoria & Queensbridge","cuisine":"Latin American","boro":"Queens","rating":null,"price":null,"fsq_id":null},{"name":"The Garden Bar & Grill","lat":40.706236,"lon":-73.943016,"puma":"3604301","puma_name":"Williamsburg & Greenpoint","cuisine":"Latin American","boro":"Brooklyn","rating":null,"price":null,"fsq_id":null},{"name":"Tikal Mayan","lat":40.769257,"lon":-73.958035,"puma":"3604108","puma_name":"Upper East Side & Roosevelt Island","cuisine":"Latin American","boro":"Manhattan","rating":null,"price":null,"fsq_id":null},{"name":"Tipico Dominicano","lat":40.75071,"lon":-73.8629,"puma":"3604403","puma_name":"Jackson Heights & East Elmhurst","cuisine":"Latin American","boro":"Queens","rating":null,"price":null,"fsq_id":null},{"name":"Titahs Deli Grocery","lat":40.757767,"lon":-73.862593,"puma":"3604403","puma_name":"Jackson Heights & East Elmhurst","cuisine":"Latin American","boro":"Queens","rating":null,"price":null,"fsq_id":null},{"name":"Tozton","lat":40.758135,"lon":-73.91721,"puma":"3604401","puma_name":"Astoria & Queensbridge","cuisine":"Latin American","boro":"Queens","rating":null,"price":null,"fsq_id":null},{"name":"True Colors","lat":40.747368,"lon":-73.886485,"puma":"3604403","puma_name":"Jackson Heights & East Elmhurst","cuisine":"Latin American","boro":"Queens","rating":null,"price":null,"fsq_id":null},{"name":"Uncle Jack'S Steakhouse","lat":40.75371,"lon":-73.996051,"puma":"3604104","puma_name":"Chelsea & Hell's Kitchen","cuisine":"Steakhouse","boro":"Manhattan","rating":null,"price":null,"fsq_id":null},{"name":"Valdes House Bar Restaurant","lat":40.760133,"lon":-73.877475,"puma":"3604403","puma_name":"Jackson Heights & East Elmhurst","cuisine":"Latin American","boro":"Queens","rating":null,"price":null,"fsq_id":null},{"name":"Vanilla Cafe","lat":40.748138,"lon":-73.879154,"puma":"3604403","puma_name":"Jackson Heights & East Elmhurst","cuisine":"Latin American","boro":"Queens","rating":null,"price":null,"fsq_id":null},{"name":"Vida","lat":40.763017,"lon":-73.915688,"puma":"3604401","puma_name":"Astoria & Queensbridge","cuisine":"Steakhouse","boro":"Queens","rating":null,"price":null,"fsq_id":null},{"name":"Viva La Heights","lat":40.747268,"lon":-73.887431,"puma":"3604403","puma_name":"Jackson Heights & East Elmhurst","cuisine":"Latin American","boro":"Queens","rating":null,"price":null,"fsq_id":null},{"name":"West Side Steakhouse","lat":40.760503,"lon":-73.994845,"puma":"3604104","puma_name":"Chelsea & Hell's Kitchen","cuisine":"Steakhouse","boro":"Manhattan","rating":null,"price":null,"fsq_id":null},{"name":"White Maize","lat":40.74146,"lon":-73.99886,"puma":"3604104","puma_name":"Chelsea & Hell's Kitchen","cuisine":"Latin American","boro":"Manhattan","rating":null,"price":null,"fsq_id":null},{"name":"Wolfgang'S Steakhouse","lat":40.721206,"lon":-74.009961,"puma":"3604121","puma_name":"Financial District & Greenwich Village","cuisine":"Steakhouse","boro":"Manhattan","rating":null,"price":null,"fsq_id":null},{"name":"Yeras","lat":40.755971,"lon":-73.881457,"puma":"3604403","puma_name":"Jackson Heights & East Elmhurst","cuisine":"Latin American","boro":"Queens","rating":null,"price":null,"fsq_id":null}],"stats":{"nyc_total":11144,"top_neighborhood":"Upper East Side & Roosevelt Island","n_venues":289,"n_affordable_rated":0,"median_rating":null},"data_quality":"ok"}