{"code":"ECU","nation":"Ecuador","flag":"\ud83c\uddea\ud83c\udde8","confederation":"CONMEBOL","host":false,"b05006":["B05006_170E"],"cuisines":["Latin American"],"notes":"No 'Ecuadorian' DOHMH tag; Latin American bucket.","nyc_total":126644,"choropleth":{"3604103":{"count":398,"moe":259,"reliab":"low","share_fb":0.0081},"3604104":{"count":815,"moe":354,"reliab":"moderate","share_fb":0.0246},"3604107":{"count":591,"moe":328,"reliab":"low","share_fb":0.0117},"3604108":{"count":306,"moe":233,"reliab":"low","share_fb":0.006},"3604109":{"count":1314,"moe":625,"reliab":"moderate","share_fb":0.0345},"3604110":{"count":505,"moe":344,"reliab":"low","share_fb":0.0156},"3604111":{"count":1066,"moe":393,"reliab":"moderate","share_fb":0.0351},"3604112":{"count":4210,"moe":1412,"reliab":"moderate","share_fb":0.0493},"3604121":{"count":128,"moe":135,"reliab":"low","share_fb":0.0034},"3604165":{"count":222,"moe":186,"reliab":"low","share_fb":0.0044},"3604204":{"count":2361,"moe":834,"reliab":"moderate","share_fb":0.0421},"3604205":{"count":1288,"moe":425,"reliab":"moderate","share_fb":0.0214},"3604207":{"count":1749,"moe":538,"reliab":"moderate","share_fb":0.0299},"3604208":{"count":500,"moe":289,"reliab":"low","share_fb":0.0165},"3604209":{"count":2943,"moe":678,"reliab":"high","share_fb":0.0522},"3604210":{"count":1487,"moe":531,"reliab":"moderate","share_fb":0.0457},"3604211":{"count":1053,"moe":399,"reliab":"moderate","share_fb":0.0281},"3604212":{"count":368,"moe":172,"reliab":"moderate","share_fb":0.0059},"3604221":{"count":2656,"moe":628,"reliab":"high","share_fb":0.0659},"3604263":{"count":1897,"moe":730,"reliab":"moderate","share_fb":0.0366},"3604301":{"count":1235,"moe":710,"reliab":"low","share_fb":0.0283},"3604302":{"count":376,"moe":338,"reliab":"low","share_fb":0.0142},"3604303":{"count":1028,"moe":448,"reliab":"moderate","share_fb":0.0291},"3604304":{"count":3871,"moe":1116,"reliab":"moderate","share_fb":0.1104},"3604305":{"count":4658,"moe":1387,"reliab":"moderate","share_fb":0.0631},"3604306":{"count":358,"moe":181,"reliab":"low","share_fb":0.0166},"3604307":{"count":1934,"moe":474,"reliab":"high","share_fb":0.0406},"3604308":{"count":538,"moe":650,"reliab":"low","share_fb":0.0189},"3604309":{"count":283,"moe":421,"reliab":"low","share_fb":0.0085},"3604310":{"count":1311,"moe":574,"reliab":"moderate","share_fb":0.0276},"3604311":{"count":1419,"moe":371,"reliab":"moderate","share_fb":0.0141},"3604312":{"count":1950,"moe":622,"reliab":"moderate","share_fb":0.0341},"3604313":{"count":708,"moe":390,"reliab":"low","share_fb":0.0115},"3604314":{"count":312,"moe":183,"reliab":"low","share_fb":0.0048},"3604315":{"count":339,"moe":296,"reliab":"low","share_fb":0.0045},"3604316":{"count":730,"moe":897,"reliab":"low","share_fb":0.0245},"3604317":{"count":581,"moe":579,"reliab":"low","share_fb":0.008},"3604318":{"count":423,"moe":236,"reliab":"low","share_fb":0.0055},"3604401":{"count":3330,"moe":799,"reliab":"high","share_fb":0.0512},"3604402":{"count":5054,"moe":867,"reliab":"high","share_fb":0.0812},"3604403":{"count":19702,"moe":2410,"reliab":"high","share_fb":0.2062},"3604404":{"count":17443,"moe":2201,"reliab":"high","share_fb":0.1635},"3604405":{"count":10458,"moe":1781,"reliab":"high","share_fb":0.1474},"3604406":{"count":1272,"moe":536,"reliab":"moderate","share_fb":0.0223},"3604407":{"count":3844,"moe":1022,"reliab":"moderate","share_fb":0.0272},"3604408":{"count":1835,"moe":583,"reliab":"moderate","share_fb":0.025},"3604409":{"count":5975,"moe":848,"reliab":"high","share_fb":0.0772},"3604410":{"count":2343,"moe":619,"reliab":"moderate","share_fb":0.0378},"3604411":{"count":522,"moe":219,"reliab":"moderate","share_fb":0.0103},"3604412":{"count":3283,"moe":689,"reliab":"high","share_fb":0.0282},"3604413":{"count":984,"moe":306,"reliab":"moderate","share_fb":0.0107},"3604414":{"count":712,"moe":288,"reliab":"moderate","share_fb":0.0189},"3604501":{"count":1173,"moe":453,"reliab":"moderate","share_fb":0.0244},"3604502":{"count":563,"moe":340,"reliab":"low","share_fb":0.0127},"3604503":{"count":240,"moe":173,"reliab":"low","share_fb":0.0076}},"top_pumas":["3604403","3604404","3604405","3604409","3604402","3604305","3604112","3604304"],"top_puma_names":["Jackson Heights & East Elmhurst","Elmhurst & Corona","Ridgewood, Maspeth, & Middle Village","Kew Gardens, Richmond Hill, & Woodhaven","Long Island City, Sunnyside, & Woodside","East New York & Cypress Hills","Washington Heights & Inwood","Bushwick"],"venues":[{"name":"12 Corazones","lat":40.748078,"lon":-73.879558,"puma":"3604404","puma_name":"Elmhurst & Corona","cuisine":"Latin American","boro":"Queens","rating":null,"price":null,"fsq_id":null},{"name":"180 Bar","lat":40.849635,"lon":-73.936311,"puma":"3604112","puma_name":"Washington Heights & Inwood","cuisine":"Latin American","boro":"Manhattan","rating":null,"price":null,"fsq_id":null},{"name":"2020 Sabores Latinos Rest & Bakery","lat":40.700808,"lon":-73.826368,"puma":"3604409","puma_name":"Kew Gardens, Richmond Hill, & Woodhaven","cuisine":"Latin American","boro":"Queens","rating":null,"price":null,"fsq_id":null},{"name":"69Th Coffee Shop","lat":40.736848,"lon":-73.89595,"puma":"3604402","puma_name":"Long Island City, Sunnyside, & Woodside","cuisine":"Latin American","boro":"Queens","rating":null,"price":null,"fsq_id":null},{"name":"79 Amigo Bar","lat":40.747355,"lon":-73.886471,"puma":"3604404","puma_name":"Elmhurst & Corona","cuisine":"Latin American","boro":"Queens","rating":null,"price":null,"fsq_id":null},{"name":"809 Grill & Bar Restaurant","lat":40.862012,"lon":-73.925023,"puma":"3604112","puma_name":"Washington Heights & Inwood","cuisine":"Latin American","boro":"Manhattan","rating":null,"price":null,"fsq_id":null},{"name":"809 Steak & Fries \"R\" Us","lat":40.753936,"lon":-73.8611,"puma":"3604403","puma_name":"Jackson Heights & East Elmhurst","cuisine":"Latin American","boro":"Queens","rating":null,"price":null,"fsq_id":null},{"name":"Adela'S Cafe Restaurant","lat":40.750939,"lon":-73.873024,"puma":"3604403","puma_name":"Jackson Heights & East Elmhurst","cuisine":"Latin American","boro":"Queens","rating":null,"price":null,"fsq_id":null},{"name":"Aj Juice & Fruit Restaurant","lat":40.844533,"lon":-73.937212,"puma":"3604112","puma_name":"Washington Heights & Inwood","cuisine":"Latin American","boro":"Manhattan","rating":null,"price":null,"fsq_id":null},{"name":"Alegria Dominicana","lat":40.83853,"lon":-73.941594,"puma":"3604112","puma_name":"Washington Heights & Inwood","cuisine":"Latin American","boro":"Manhattan","rating":null,"price":null,"fsq_id":null},{"name":"Alex Luncheonette","lat":40.694751,"lon":-73.911212,"puma":"3604304","puma_name":"Bushwick","cuisine":"Latin American","boro":"Brooklyn","rating":null,"price":null,"fsq_id":null},{"name":"Alfonso'S Bar","lat":40.74612,"lon":-73.890103,"puma":"3604404","puma_name":"Elmhurst & Corona","cuisine":"Latin American","boro":"Queens","rating":null,"price":null,"fsq_id":null},{"name":"Ambato Restaurant","lat":40.703414,"lon":-73.908741,"puma":"3604405","puma_name":"Ridgewood, Maspeth, & Middle Village","cuisine":"Latin American","boro":"Queens","rating":null,"price":null,"fsq_id":null},{"name":"Analia'S Restaurant","lat":40.863345,"lon":-73.92659,"puma":"3604112","puma_name":"Washington Heights & Inwood","cuisine":"Latin American","boro":"Manhattan","rating":null,"price":null,"fsq_id":null},{"name":"Angelo'S Deli Restaurant","lat":40.717453,"lon":-73.919118,"puma":"3604405","puma_name":"Ridgewood, Maspeth, & Middle Village","cuisine":"Latin American","boro":"Queens","rating":null,"price":null,"fsq_id":null},{"name":"Antioquena Bakery","lat":40.749164,"lon":-73.869223,"puma":"3604404","puma_name":"Elmhurst & Corona","cuisine":"Latin American","boro":"Queens","rating":null,"price":null,"fsq_id":null},{"name":"Antojitos Ecuatorianos","lat":40.684208,"lon":-73.870173,"puma":"3604305","puma_name":"East New York & Cypress Hills","cuisine":"Latin American","boro":"Brooklyn","rating":null,"price":null,"fsq_id":null},{"name":"Antojitos El Mijin","lat":40.757446,"lon":-73.86729,"puma":"3604403","puma_name":"Jackson Heights & East Elmhurst","cuisine":"Latin American","boro":"Queens","rating":null,"price":null,"fsq_id":null},{"name":"Arepa Lady","lat":40.749284,"lon":-73.888727,"puma":"3604403","puma_name":"Jackson Heights & East Elmhurst","cuisine":"Latin American","boro":"Queens","rating":null,"price":null,"fsq_id":null},{"name":"Arepas Burger","lat":40.755479,"lon":-73.886132,"puma":"3604403","puma_name":"Jackson Heights & East Elmhurst","cuisine":"Latin American","boro":"Queens","rating":null,"price":null,"fsq_id":null},{"name":"Aroma De Cafe","lat":40.743301,"lon":-73.88371,"puma":"3604404","puma_name":"Elmhurst & Corona","cuisine":"Latin American","boro":"Queens","rating":null,"price":null,"fsq_id":null},{"name":"Aroma De Cafe Bakery","lat":40.743301,"lon":-73.88371,"puma":"3604404","puma_name":"Elmhurst & Corona","cuisine":"Latin American","boro":"Queens","rating":null,"price":null,"fsq_id":null},{"name":"Aroma Haven Cafe","lat":40.69739,"lon":-73.923972,"puma":"3604304","puma_name":"Bushwick","cuisine":"Latin American","boro":"Brooklyn","rating":null,"price":null,"fsq_id":null},{"name":"Asadero La Fogata","lat":40.75577,"lon":-73.88337,"puma":"3604403","puma_name":"Jackson Heights & East Elmhurst","cuisine":"Latin American","boro":"Queens","rating":null,"price":null,"fsq_id":null},{"name":"Asadero La Fogata","lat":40.742531,"lon":-73.854166,"puma":"3604404","puma_name":"Elmhurst & Corona","cuisine":"Latin American","boro":"Queens","rating":null,"price":null,"fsq_id":null},{"name":"Authentic Ecuadorian Cuisine","lat":40.69694,"lon":-73.906456,"puma":"3604304","puma_name":"Bushwick","cuisine":"Latin American","boro":"Queens","rating":null,"price":null,"fsq_id":null},{"name":"Azoguenita Bakery","lat":40.752773,"lon":-73.864185,"puma":"3604403","puma_name":"Jackson Heights & East Elmhurst","cuisine":"Latin American","boro":"Queens","rating":null,"price":null,"fsq_id":null},{"name":"Azoguenita Bakery & Restaurant","lat":40.749746,"lon":-73.863945,"puma":"3604403","puma_name":"Jackson Heights & East Elmhurst","cuisine":"Latin American","boro":"Queens","rating":null,"price":null,"fsq_id":null},{"name":"Azoguenita Bakery & Restaurant","lat":40.749072,"lon":-73.862998,"puma":"3604404","puma_name":"Elmhurst & Corona","cuisine":"Latin American","boro":"Queens","rating":null,"price":null,"fsq_id":null},{"name":"Bar Burger","lat":40.747939,"lon":-73.88089,"puma":"3604404","puma_name":"Elmhurst & Corona","cuisine":"Latin American","boro":"Queens","rating":null,"price":null,"fsq_id":null},{"name":"Barcelo Restaurant","lat":40.699974,"lon":-73.907505,"puma":"3604405","puma_name":"Ridgewood, Maspeth, & Middle Village","cuisine":"Latin American","boro":"Queens","rating":null,"price":null,"fsq_id":null},{"name":"Barranquilla Bakery","lat":40.753757,"lon":-73.872029,"puma":"3604403","puma_name":"Jackson Heights & East Elmhurst","cuisine":"Latin American","boro":"Queens","rating":null,"price":null,"fsq_id":null},{"name":"Barrelhouse","lat":40.755582,"lon":-73.88515,"puma":"3604403","puma_name":"Jackson Heights & East Elmhurst","cuisine":"Latin American","boro":"Queens","rating":null,"price":null,"fsq_id":null},{"name":"Barzola","lat":40.750735,"lon":-73.874793,"puma":"3604403","puma_name":"Jackson Heights & East Elmhurst","cuisine":"Latin American","boro":"Queens","rating":null,"price":null,"fsq_id":null},{"name":"Barzola","lat":40.762756,"lon":-73.873922,"puma":"3604403","puma_name":"Jackson Heights & East Elmhurst","cuisine":"Latin American","boro":"Queens","rating":null,"price":null,"fsq_id":null},{"name":"Beans And Vines Express","lat":40.86645,"lon":-73.924645,"puma":"3604112","puma_name":"Washington Heights & Inwood","cuisine":"Latin American","boro":"Manhattan","rating":null,"price":null,"fsq_id":null},{"name":"Blend","lat":40.745288,"lon":-73.953254,"puma":"3604402","puma_name":"Long Island City, Sunnyside, & Woodside","cuisine":"Latin American","boro":"Queens","rating":null,"price":null,"fsq_id":null},{"name":"Blend On The Water","lat":40.748369,"lon":-73.95681,"puma":"3604402","puma_name":"Long Island City, Sunnyside, & Woodside","cuisine":"Latin American","boro":"Queens","rating":null,"price":null,"fsq_id":null},{"name":"Blue Cafe Restaurant & Bar","lat":40.74192,"lon":-73.881125,"puma":"3604404","puma_name":"Elmhurst & Corona","cuisine":"Latin American","boro":"Queens","rating":null,"price":null,"fsq_id":null},{"name":"Boca Chica Queens","lat":40.751603,"lon":-73.870575,"puma":"3604403","puma_name":"Jackson Heights & East Elmhurst","cuisine":"Latin American","boro":"Queens","rating":null,"price":null,"fsq_id":null},{"name":"Bolivian Llama Party","lat":40.739482,"lon":-73.921091,"puma":"3604402","puma_name":"Long Island City, Sunnyside, & Woodside","cuisine":"Latin American","boro":"Queens","rating":null,"price":null,"fsq_id":null},{"name":"Bonao Bar And Grill","lat":40.678914,"lon":-73.895828,"puma":"3604305","puma_name":"East New York & Cypress Hills","cuisine":"Latin American","boro":"Brooklyn","rating":null,"price":null,"fsq_id":null},{"name":"Bonao Chimi Restaurant","lat":40.691588,"lon":-73.865399,"puma":"3604409","puma_name":"Kew Gardens, Richmond Hill, & Woodhaven","cuisine":"Latin American","boro":"Queens","rating":null,"price":null,"fsq_id":null},{"name":"Bora Bora","lat":40.748045,"lon":-73.88002,"puma":"3604403","puma_name":"Jackson Heights & East Elmhurst","cuisine":"Latin American","boro":"Queens","rating":null,"price":null,"fsq_id":null},{"name":"Brown Sugar Bar & Restaurant","lat":40.869919,"lon":-73.915754,"puma":"3604112","puma_name":"Washington Heights & Inwood","cuisine":"Latin American","boro":"Manhattan","rating":null,"price":null,"fsq_id":null},{"name":"Budda Kitchen & Bar","lat":40.852365,"lon":-73.934627,"puma":"3604112","puma_name":"Washington Heights & Inwood","cuisine":"Latin American","boro":"Manhattan","rating":null,"price":null,"fsq_id":null},{"name":"Burgos Restaurant","lat":40.864986,"lon":-73.926928,"puma":"3604112","puma_name":"Washington Heights & Inwood","cuisine":"Latin American","boro":"Manhattan","rating":null,"price":null,"fsq_id":null},{"name":"Bushwick Rostiseria Restaurant","lat":40.705284,"lon":-73.920785,"puma":"3604304","puma_name":"Bushwick","cuisine":"Latin American","boro":"Brooklyn","rating":null,"price":null,"fsq_id":null},{"name":"Cabana Jorge","lat":40.703002,"lon":-73.908042,"puma":"3604405","puma_name":"Ridgewood, Maspeth, & Middle Village","cuisine":"Latin American","boro":"Queens","rating":null,"price":null,"fsq_id":null},{"name":"Cachapa'S Brooklyn","lat":40.673194,"lon":-73.887088,"puma":"3604305","puma_name":"East New York & Cypress Hills","cuisine":"Latin American","boro":"Brooklyn","rating":null,"price":null,"fsq_id":null},{"name":"Cachapas Y Mas","lat":40.703142,"lon":-73.90828,"puma":"3604405","puma_name":"Ridgewood, Maspeth, & Middle Village","cuisine":"Latin American","boro":"Queens","rating":null,"price":null,"fsq_id":null},{"name":"Cachapas Y Mas","lat":40.861925,"lon":-73.924943,"puma":"3604112","puma_name":"Washington Heights & Inwood","cuisine":"Latin American","boro":"Manhattan","rating":null,"price":null,"fsq_id":null},{"name":"Cafe 2000","lat":40.74895,"lon":-73.869317,"puma":"3604404","puma_name":"Elmhurst & Corona","cuisine":"Latin American","boro":"Queens","rating":null,"price":null,"fsq_id":null},{"name":"Cafe 47 Ny","lat":40.746468,"lon":-73.856586,"puma":"3604404","puma_name":"Elmhurst & Corona","cuisine":"Latin American","boro":"Queens","rating":null,"price":null,"fsq_id":null},{"name":"Cafe Colombia Bakery","lat":40.742296,"lon":-73.918558,"puma":"3604402","puma_name":"Long Island City, Sunnyside, & Woodside","cuisine":"Latin American","boro":"Queens","rating":null,"price":null,"fsq_id":null},{"name":"Cafe Valdez","lat":40.74864,"lon":-73.869098,"puma":"3604404","puma_name":"Elmhurst & Corona","cuisine":"Latin American","boro":"Queens","rating":null,"price":null,"fsq_id":null},{"name":"Cafetales","lat":40.74727,"lon":-73.887402,"puma":"3604403","puma_name":"Jackson Heights & East Elmhurst","cuisine":"Latin American","boro":"Queens","rating":null,"price":null,"fsq_id":null},{"name":"Cali Aji Con Sabor Restaurant","lat":40.762292,"lon":-73.871114,"puma":"3604403","puma_name":"Jackson Heights & East Elmhurst","cuisine":"Latin American","boro":"Queens","rating":null,"price":null,"fsq_id":null},{"name":"Cali Tajadas Bakery & Restaurant","lat":40.746826,"lon":-73.860151,"puma":"3604404","puma_name":"Elmhurst & Corona","cuisine":"Latin American","boro":"Queens","rating":null,"price":null,"fsq_id":null},{"name":"Calibella","lat":40.70218,"lon":-73.906655,"puma":"3604405","puma_name":"Ridgewood, Maspeth, & Middle Village","cuisine":"Latin American","boro":"Queens","rating":null,"price":null,"fsq_id":null},{"name":"Calibella Bakery","lat":40.702382,"lon":-73.916165,"puma":"3604304","puma_name":"Bushwick","cuisine":"Latin American","boro":"Brooklyn","rating":null,"price":null,"fsq_id":null},{"name":"California Sports Bar","lat":40.747646,"lon":-73.883673,"puma":"3604404","puma_name":"Elmhurst & Corona","cuisine":"Latin American","boro":"Queens","rating":null,"price":null,"fsq_id":null},{"name":"Cami","lat":40.852365,"lon":-73.934627,"puma":"3604112","puma_name":"Washington Heights & Inwood","cuisine":"Latin American","boro":"Manhattan","rating":null,"price":null,"fsq_id":null},{"name":"Campeon Del Pollo Restaurant","lat":40.743596,"lon":-73.855878,"puma":"3604404","puma_name":"Elmhurst & Corona","cuisine":"Latin American","boro":"Queens","rating":null,"price":null,"fsq_id":null},{"name":"Canave","lat":40.864491,"lon":-73.929091,"puma":"3604112","puma_name":"Washington Heights & Inwood","cuisine":"Latin American","boro":"Manhattan","rating":null,"price":null,"fsq_id":null},{"name":"Cantina 33","lat":40.699974,"lon":-73.907505,"puma":"3604405","puma_name":"Ridgewood, Maspeth, & Middle Village","cuisine":"Latin American","boro":"Queens","rating":null,"price":null,"fsq_id":null},{"name":"Cantina La 87","lat":40.756063,"lon":-73.880583,"puma":"3604403","puma_name":"Jackson Heights & East Elmhurst","cuisine":"Latin American","boro":"Queens","rating":null,"price":null,"fsq_id":null},{"name":"Caoba","lat":40.656047,"lon":-73.89785,"puma":"3604305","puma_name":"East New York & Cypress Hills","cuisine":"Latin American","boro":"Brooklyn","rating":null,"price":null,"fsq_id":null},{"name":"Caraotas Nyc","lat":40.702308,"lon":-73.920197,"puma":"3604304","puma_name":"Bushwick","cuisine":"Latin American","boro":"Brooklyn","rating":null,"price":null,"fsq_id":null},{"name":"Caridad Restaurant","lat":40.757337,"lon":-73.868312,"puma":"3604403","puma_name":"Jackson Heights & East Elmhurst","cuisine":"Latin American","boro":"Queens","rating":null,"price":null,"fsq_id":null},{"name":"Caridad Restaurant","lat":40.692892,"lon":-73.854448,"puma":"3604409","puma_name":"Kew Gardens, Richmond Hill, & Woodhaven","cuisine":"Latin American","boro":"Queens","rating":null,"price":null,"fsq_id":null},{"name":"Carro Cafe","lat":40.68499,"lon":-73.867446,"puma":"3604305","puma_name":"East New York & Cypress Hills","cuisine":"Latin American","boro":"Brooklyn","rating":null,"price":null,"fsq_id":null},{"name":"Casa Melania","lat":40.726001,"lon":-73.912217,"puma":"3604405","puma_name":"Ridgewood, Maspeth, & Middle Village","cuisine":"Latin American","boro":"Queens","rating":null,"price":null,"fsq_id":null},{"name":"Ceci'S","lat":40.658216,"lon":-73.895605,"puma":"3604305","puma_name":"East New York & Cypress Hills","cuisine":"Latin American","boro":"Brooklyn","rating":null,"price":null,"fsq_id":null},{"name":"Chapiyork Deli Grocery And Restaurant","lat":40.750914,"lon":-73.870479,"puma":"3604403","puma_name":"Jackson Heights & East Elmhurst","cuisine":"Latin American","boro":"Queens","rating":null,"price":null,"fsq_id":null},{"name":"Charo Bros Restaurant","lat":40.748159,"lon":-73.868824,"puma":"3604404","puma_name":"Elmhurst & Corona","cuisine":"Latin American","boro":"Queens","rating":null,"price":null,"fsq_id":null},{"name":"Chez Messy","lat":40.834527,"lon":-73.945399,"puma":"3604112","puma_name":"Washington Heights & Inwood","cuisine":"Latin American","boro":"Manhattan","rating":null,"price":null,"fsq_id":null},{"name":"Chiflez","lat":40.748961,"lon":-73.871172,"puma":"3604404","puma_name":"Elmhurst & Corona","cuisine":"Latin American","boro":"Queens","rating":null,"price":null,"fsq_id":null},{"name":"Chiflez","lat":40.748961,"lon":-73.871172,"puma":"3604404","puma_name":"Elmhurst & Corona","cuisine":"Latin American","boro":"Queens","rating":null,"price":null,"fsq_id":null},{"name":"Chimi Express","lat":40.746973,"lon":-73.863482,"puma":"3604404","puma_name":"Elmhurst & Corona","cuisine":"Latin American","boro":"Queens","rating":null,"price":null,"fsq_id":null},{"name":"Chivito De Oro","lat":40.749941,"lon":-73.882294,"puma":"3604403","puma_name":"Jackson Heights & East Elmhurst","cuisine":"Latin American","boro":"Queens","rating":null,"price":null,"fsq_id":null},{"name":"Christopher'S Palace","lat":40.697897,"lon":-73.926903,"puma":"3604304","puma_name":"Bushwick","cuisine":"Latin American","boro":"Brooklyn","rating":null,"price":null,"fsq_id":null},{"name":"Cibao Juice & Restaurant","lat":40.839398,"lon":-73.937264,"puma":"3604112","puma_name":"Washington Heights & Inwood","cuisine":"Latin American","boro":"Manhattan","rating":null,"price":null,"fsq_id":null},{"name":"Cici'S Kitchen","lat":40.863054,"lon":-73.927429,"puma":"3604112","puma_name":"Washington Heights & Inwood","cuisine":"Latin American","boro":"Manhattan","rating":null,"price":null,"fsq_id":null},{"name":"Cloisters Grill","lat":40.851982,"lon":-73.931768,"puma":"3604112","puma_name":"Washington Heights & Inwood","cuisine":"Latin American","boro":"Manhattan","rating":null,"price":null,"fsq_id":null},{"name":"Cloisters Grill","lat":40.866748,"lon":-73.930039,"puma":"3604112","puma_name":"Washington Heights & Inwood","cuisine":"Latin American","boro":"Manhattan","rating":null,"price":null,"fsq_id":null},{"name":"Club Evolution","lat":40.747066,"lon":-73.889322,"puma":"3604403","puma_name":"Jackson Heights & East Elmhurst","cuisine":"Latin American","boro":"Queens","rating":null,"price":null,"fsq_id":null},{"name":"Cocina Latina","lat":40.868266,"lon":-73.919202,"puma":"3604112","puma_name":"Washington Heights & Inwood","cuisine":"Latin American","boro":"Manhattan","rating":null,"price":null,"fsq_id":null},{"name":"Cocina Mama Rosa","lat":40.703002,"lon":-73.908009,"puma":"3604405","puma_name":"Ridgewood, Maspeth, & Middle Village","cuisine":"Latin American","boro":"Queens","rating":null,"price":null,"fsq_id":null},{"name":"Colombia Fama Bakery","lat":40.74551,"lon":-73.904172,"puma":"3604402","puma_name":"Long Island City, Sunnyside, & Woodside","cuisine":"Latin American","boro":"Queens","rating":null,"price":null,"fsq_id":null},{"name":"Corona King Restaurant & Bar","lat":40.752817,"lon":-73.859832,"puma":"3604403","puma_name":"Jackson Heights & East Elmhurst","cuisine":"Latin American","boro":"Queens","rating":null,"price":null,"fsq_id":null},{"name":"Cositas Ricas","lat":40.747371,"lon":-73.88646,"puma":"3604403","puma_name":"Jackson Heights & East Elmhurst","cuisine":"Latin American","boro":"Queens","rating":null,"price":null,"fsq_id":null},{"name":"Costa Y Mar","lat":40.740054,"lon":-73.923861,"puma":"3604402","puma_name":"Long Island City, Sunnyside, & Woodside","cuisine":"Latin American","boro":"Queens","rating":null,"price":null,"fsq_id":null},{"name":"Croissant Bakery & Restaurant","lat":40.749976,"lon":-73.861657,"puma":"3604404","puma_name":"Elmhurst & Corona","cuisine":"Latin American","boro":"Queens","rating":null,"price":null,"fsq_id":null},{"name":"Cuenca Coffee Shop Restaurant","lat":40.694442,"lon":-73.849468,"puma":"3604409","puma_name":"Kew Gardens, Richmond Hill, & Woodhaven","cuisine":"Latin American","boro":"Queens","rating":null,"price":null,"fsq_id":null},{"name":"Cuencanito","lat":40.739971,"lon":-73.918376,"puma":"3604402","puma_name":"Long Island City, Sunnyside, & Woodside","cuisine":"Latin American","boro":"Queens","rating":null,"price":null,"fsq_id":null},{"name":"D' Montazo Restaurant","lat":40.701311,"lon":-73.914327,"puma":"3604304","puma_name":"Bushwick","cuisine":"Latin American","boro":"Brooklyn","rating":null,"price":null,"fsq_id":null},{"name":"D'Antigua","lat":40.755767,"lon":-73.883262,"puma":"3604403","puma_name":"Jackson Heights & East Elmhurst","cuisine":"Latin American","boro":"Queens","rating":null,"price":null,"fsq_id":null},{"name":"Damajagua Restaurant","lat":40.870709,"lon":-73.914762,"puma":"3604112","puma_name":"Washington Heights & Inwood","cuisine":"Latin American","boro":"Manhattan","rating":null,"price":null,"fsq_id":null},{"name":"Delicias Ambatenas","lat":40.746253,"lon":-73.896931,"puma":"3604402","puma_name":"Long Island City, Sunnyside, & Woodside","cuisine":"Latin American","boro":"Queens","rating":null,"price":null,"fsq_id":null},{"name":"Delicias Calenas","lat":40.749072,"lon":-73.870284,"puma":"3604403","puma_name":"Jackson Heights & East Elmhurst","cuisine":"Latin American","boro":"Queens","rating":null,"price":null,"fsq_id":null},{"name":"Delicias Calenas","lat":40.750506,"lon":-73.892994,"puma":"3604403","puma_name":"Jackson Heights & East Elmhurst","cuisine":"Latin American","boro":"Queens","rating":null,"price":null,"fsq_id":null},{"name":"Delicias Colombianas","lat":40.749419,"lon":-73.88424,"puma":"3604403","puma_name":"Jackson Heights & East Elmhurst","cuisine":"Latin American","boro":"Queens","rating":null,"price":null,"fsq_id":null},{"name":"Delicias Secuenas","lat":40.704428,"lon":-73.910456,"puma":"3604405","puma_name":"Ridgewood, Maspeth, & Middle Village","cuisine":"Latin American","boro":"Queens","rating":null,"price":null,"fsq_id":null},{"name":"Deseos Lounge","lat":40.744245,"lon":-73.91224,"puma":"3604402","puma_name":"Long Island City, Sunnyside, & Woodside","cuisine":"Latin American","boro":"Queens","rating":null,"price":null,"fsq_id":null},{"name":"Dinastia Equadorian Food","lat":40.749729,"lon":-73.863942,"puma":"3604404","puma_name":"Elmhurst & Corona","cuisine":"Latin American","boro":"Queens","rating":null,"price":null,"fsq_id":null},{"name":"District 385","lat":40.700472,"lon":-73.902286,"puma":"3604405","puma_name":"Ridgewood, Maspeth, & Middle Village","cuisine":"Latin American","boro":"Queens","rating":null,"price":null,"fsq_id":null},{"name":"Don Dean Bakery","lat":40.742731,"lon":-73.933952,"puma":"3604402","puma_name":"Long Island City, Sunnyside, & Woodside","cuisine":"Latin American","boro":"Queens","rating":null,"price":null,"fsq_id":null},{"name":"Don Miguel Restaurant","lat":40.695185,"lon":-73.842694,"puma":"3604409","puma_name":"Kew Gardens, Richmond Hill, & Woodhaven","cuisine":"Latin American","boro":"Queens","rating":null,"price":null,"fsq_id":null},{"name":"Dona Cuquita","lat":40.747263,"lon":-73.862514,"puma":"3604404","puma_name":"Elmhurst & Corona","cuisine":"Latin American","boro":"Queens","rating":null,"price":null,"fsq_id":null},{"name":"Dora'S Caffe","lat":40.750708,"lon":-73.862915,"puma":"3604403","puma_name":"Jackson Heights & East Elmhurst","cuisine":"Latin American","boro":"Queens","rating":null,"price":null,"fsq_id":null},{"name":"Duran Restaurant","lat":40.694469,"lon":-73.849244,"puma":"3604409","puma_name":"Kew Gardens, Richmond Hill, & Woodhaven","cuisine":"Latin American","boro":"Queens","rating":null,"price":null,"fsq_id":null},{"name":"Dyckman Dogs","lat":40.861872,"lon":-73.924911,"puma":"3604112","puma_name":"Washington Heights & Inwood","cuisine":"Latin American","boro":"Manhattan","rating":null,"price":null,"fsq_id":null},{"name":"Ecuapollos","lat":40.697913,"lon":-73.926759,"puma":"3604304","puma_name":"Bushwick","cuisine":"Latin American","boro":"Brooklyn","rating":null,"price":null,"fsq_id":null},{"name":"El Abuelo Gozon","lat":40.74736,"lon":-73.886564,"puma":"3604403","puma_name":"Jackson Heights & East Elmhurst","cuisine":"Latin American","boro":"Queens","rating":null,"price":null,"fsq_id":null},{"name":"El Artesano","lat":40.741803,"lon":-73.874571,"puma":"3604404","puma_name":"Elmhurst & Corona","cuisine":"Latin American","boro":"Queens","rating":null,"price":null,"fsq_id":null},{"name":"El Azteca Y El Guanaco","lat":40.848167,"lon":-73.93778,"puma":"3604112","puma_name":"Washington Heights & Inwood","cuisine":"Latin American","boro":"Manhattan","rating":null,"price":null,"fsq_id":null},{"name":"El Budare Cafe","lat":40.748151,"lon":-73.879038,"puma":"3604403","puma_name":"Jackson Heights & East Elmhurst","cuisine":"Latin American","boro":"Queens","rating":null,"price":null,"fsq_id":null},{"name":"El Budare Cafe","lat":40.748857,"lon":-73.872165,"puma":"3604404","puma_name":"Elmhurst & Corona","cuisine":"Latin American","boro":"Queens","rating":null,"price":null,"fsq_id":null},{"name":"El Buen Sabor","lat":40.743243,"lon":-73.919448,"puma":"3604402","puma_name":"Long Island City, Sunnyside, & Woodside","cuisine":"Latin American","boro":"Queens","rating":null,"price":null,"fsq_id":null},{"name":"El Cafecito De Mama","lat":40.749372,"lon":-73.861456,"puma":"3604404","puma_name":"Elmhurst & Corona","cuisine":"Latin American","boro":"Queens","rating":null,"price":null,"fsq_id":null},{"name":"El Campeon De Los Pollos 2","lat":40.686044,"lon":-73.839748,"puma":"3604409","puma_name":"Kew Gardens, Richmond Hill, & Woodhaven","cuisine":"Latin American","boro":"Queens","rating":null,"price":null,"fsq_id":null},{"name":"El Canelazo","lat":40.747442,"lon":-73.885619,"puma":"3604404","puma_name":"Elmhurst & Corona","cuisine":"Latin American","boro":"Queens","rating":null,"price":null,"fsq_id":null},{"name":"El Cangrejal Restaurant","lat":40.752574,"lon":-73.867047,"puma":"3604403","puma_name":"Jackson Heights & East Elmhurst","cuisine":"Latin American","boro":"Queens","rating":null,"price":null,"fsq_id":null},{"name":"El Changaro","lat":40.753052,"lon":-73.865187,"puma":"3604403","puma_name":"Jackson Heights & East Elmhurst","cuisine":"Latin American","boro":"Queens","rating":null,"price":null,"fsq_id":null},{"name":"El Cocinerito","lat":40.748075,"lon":-73.879738,"puma":"3604403","puma_name":"Jackson Heights & East Elmhurst","cuisine":"Latin American","boro":"Queens","rating":null,"price":null,"fsq_id":null},{"name":"El Conde Bar & Grill","lat":40.84419,"lon":-73.937487,"puma":"3604112","puma_name":"Washington Heights & Inwood","cuisine":"Latin American","boro":"Manhattan","rating":null,"price":null,"fsq_id":null},{"name":"El Conquistador","lat":40.749938,"lon":-73.899116,"puma":"3604402","puma_name":"Long Island City, Sunnyside, & Woodside","cuisine":"Latin American","boro":"Queens","rating":null,"price":null,"fsq_id":null},{"name":"El Cuencanito","lat":40.743587,"lon":-73.862215,"puma":"3604404","puma_name":"Elmhurst & Corona","cuisine":"Latin American","boro":"Queens","rating":null,"price":null,"fsq_id":null},{"name":"El Dorado","lat":40.699767,"lon":-73.909359,"puma":"3604405","puma_name":"Ridgewood, Maspeth, & Middle Village","cuisine":"Latin American","boro":"Queens","rating":null,"price":null,"fsq_id":null},{"name":"El Encebollado De Victor","lat":40.702119,"lon":-73.924197,"puma":"3604304","puma_name":"Bushwick","cuisine":"Latin American","boro":"Brooklyn","rating":null,"price":null,"fsq_id":null},{"name":"El Encebollado De Victor 2","lat":40.748627,"lon":-73.874537,"puma":"3604403","puma_name":"Jackson Heights & East Elmhurst","cuisine":"Latin American","boro":"Queens","rating":null,"price":null,"fsq_id":null},{"name":"El Encebollado De Victor 3","lat":40.757851,"lon":-73.859864,"puma":"3604403","puma_name":"Jackson Heights & East Elmhurst","cuisine":"Latin American","boro":"Queens","rating":null,"price":null,"fsq_id":null},{"name":"El Encebollado De Victor Corp","lat":40.702947,"lon":-73.907948,"puma":"3604405","puma_name":"Ridgewood, Maspeth, & Middle Village","cuisine":"Latin American","boro":"Queens","rating":null,"price":null,"fsq_id":null},{"name":"El Encuentro","lat":40.750547,"lon":-73.862038,"puma":"3604403","puma_name":"Jackson Heights & East Elmhurst","cuisine":"Latin American","boro":"Queens","rating":null,"price":null,"fsq_id":null},{"name":"El Fogon Costeno","lat":40.701803,"lon":-73.908729,"puma":"3604405","puma_name":"Ridgewood, Maspeth, & Middle Village","cuisine":"Latin American","boro":"Queens","rating":null,"price":null,"fsq_id":null},{"name":"El Gallo Negro","lat":40.751651,"lon":-73.855528,"puma":"3604404","puma_name":"Elmhurst & Corona","cuisine":"Latin American","boro":"Queens","rating":null,"price":null,"fsq_id":null},{"name":"El Gauchito","lat":40.742286,"lon":-73.869478,"puma":"3604404","puma_name":"Elmhurst & Corona","cuisine":"Latin American","boro":"Queens","rating":null,"price":null,"fsq_id":null},{"name":"El Gran Coffee Shop","lat":40.748031,"lon":-73.879988,"puma":"3604404","puma_name":"Elmhurst & Corona","cuisine":"Latin American","boro":"Queens","rating":null,"price":null,"fsq_id":null},{"name":"El Guayaquileno","lat":40.742286,"lon":-73.869486,"puma":"3604404","puma_name":"Elmhurst & Corona","cuisine":"Latin American","boro":"Queens","rating":null,"price":null,"fsq_id":null},{"name":"El Jardin Azuayo","lat":40.702289,"lon":-73.923544,"puma":"3604304","puma_name":"Bushwick","cuisine":"Latin American","boro":"Brooklyn","rating":null,"price":null,"fsq_id":null},{"name":"El Manaba","lat":40.700539,"lon":-73.90982,"puma":"3604405","puma_name":"Ridgewood, Maspeth, & Middle Village","cuisine":"Latin American","boro":"Queens","rating":null,"price":null,"fsq_id":null},{"name":"El Manatial","lat":40.75014,"lon":-73.860725,"puma":"3604403","puma_name":"Jackson Heights & East Elmhurst","cuisine":"Latin American","boro":"Queens","rating":null,"price":null,"fsq_id":null},{"name":"El Montanero","lat":40.699939,"lon":-73.90783,"puma":"3604405","puma_name":"Ridgewood, Maspeth, & Middle Village","cuisine":"Latin American","boro":"Queens","rating":null,"price":null,"fsq_id":null},{"name":"El Neuvo Caribe","lat":40.697989,"lon":-73.924999,"puma":"3604304","puma_name":"Bushwick","cuisine":"Latin American","boro":"Brooklyn","rating":null,"price":null,"fsq_id":null},{"name":"El Nuevo Barzola","lat":40.681719,"lon":-73.871389,"puma":"3604305","puma_name":"East New York & Cypress Hills","cuisine":"Latin American","boro":"Brooklyn","rating":null,"price":null,"fsq_id":null},{"name":"El Nuevo Capri Ii Restaurant","lat":40.851798,"lon":-73.931928,"puma":"3604112","puma_name":"Washington Heights & Inwood","cuisine":"Latin American","boro":"Manhattan","rating":null,"price":null,"fsq_id":null},{"name":"El Nuevo Rancho Latino","lat":40.752853,"lon":-73.864249,"puma":"3604403","puma_name":"Jackson Heights & East Elmhurst","cuisine":"Latin American","boro":"Queens","rating":null,"price":null,"fsq_id":null},{"name":"El Nuevo Sabor","lat":40.869403,"lon":-73.915321,"puma":"3604112","puma_name":"Washington Heights & Inwood","cuisine":"Latin American","boro":"Manhattan","rating":null,"price":null,"fsq_id":null},{"name":"El Nuevo Taino Restaurant","lat":40.841444,"lon":-73.935773,"puma":"3604112","puma_name":"Washington Heights & Inwood","cuisine":"Latin American","boro":"Manhattan","rating":null,"price":null,"fsq_id":null},{"name":"El Nuevo Valle Seafood Restaurant","lat":40.865926,"lon":-73.91961,"puma":"3604112","puma_name":"Washington Heights & Inwood","cuisine":"Latin American","boro":"Manhattan","rating":null,"price":null,"fsq_id":null},{"name":"El Paisa Bar","lat":40.756066,"lon":-73.880554,"puma":"3604403","puma_name":"Jackson Heights & East Elmhurst","cuisine":"Latin American","boro":"Queens","rating":null,"price":null,"fsq_id":null},{"name":"El Palacio De Las Empanadas","lat":40.742576,"lon":-73.854581,"puma":"3604404","puma_name":"Elmhurst & Corona","cuisine":"Latin American","boro":"Queens","rating":null,"price":null,"fsq_id":null},{"name":"El Parce","lat":40.704144,"lon":-73.904441,"puma":"3604405","puma_name":"Ridgewood, Maspeth, & Middle Village","cuisine":"Latin American","boro":"Queens","rating":null,"price":null,"fsq_id":null},{"name":"El Paso","lat":40.752736,"lon":-73.872555,"puma":"3604403","puma_name":"Jackson Heights & East Elmhurst","cuisine":"Latin American","boro":"Queens","rating":null,"price":null,"fsq_id":null},{"name":"El Patron","lat":40.742272,"lon":-73.855112,"puma":"3604404","puma_name":"Elmhurst & Corona","cuisine":"Latin American","boro":"Queens","rating":null,"price":null,"fsq_id":null},{"name":"El Perro","lat":40.755381,"lon":-73.886912,"puma":"3604403","puma_name":"Jackson Heights & East Elmhurst","cuisine":"Latin American","boro":"Queens","rating":null,"price":null,"fsq_id":null},{"name":"El Perro Colombian Fast Food","lat":40.693989,"lon":-73.851229,"puma":"3604409","puma_name":"Kew Gardens, Richmond Hill, & Woodhaven","cuisine":"Latin American","boro":"Queens","rating":null,"price":null,"fsq_id":null},{"name":"El Pilon Bakery","lat":40.743127,"lon":-73.918434,"puma":"3604402","puma_name":"Long Island City, Sunnyside, & Woodside","cuisine":"Latin American","boro":"Queens","rating":null,"price":null,"fsq_id":null},{"name":"El Pollo Real","lat":40.726861,"lon":-73.893783,"puma":"3604405","puma_name":"Ridgewood, Maspeth, & Middle Village","cuisine":"Latin American","boro":"Queens","rating":null,"price":null,"fsq_id":null},{"name":"El Pollo Sabroson","lat":40.724628,"lon":-73.897762,"puma":"3604405","puma_name":"Ridgewood, Maspeth, & Middle Village","cuisine":"Latin American","boro":"Queens","rating":null,"price":null,"fsq_id":null},{"name":"El Pulgarcito De America","lat":40.681608,"lon":-73.87952,"puma":"3604305","puma_name":"East New York & Cypress Hills","cuisine":"Latin American","boro":"Brooklyn","rating":null,"price":null,"fsq_id":null},{"name":"El Quetzalito","lat":40.745364,"lon":-73.907243,"puma":"3604402","puma_name":"Long Island City, Sunnyside, & Woodside","cuisine":"Latin American","boro":"Queens","rating":null,"price":null,"fsq_id":null},{"name":"El Rey Ii Restaurant","lat":40.678276,"lon":-73.869925,"puma":"3604305","puma_name":"East New York & Cypress Hills","cuisine":"Latin American","boro":"Brooklyn","rating":null,"price":null,"fsq_id":null},{"name":"El Rinconcito De Nagua","lat":40.691594,"lon":-73.865363,"puma":"3604409","puma_name":"Kew Gardens, Richmond Hill, & Woodhaven","cuisine":"Latin American","boro":"Queens","rating":null,"price":null,"fsq_id":null},{"name":"El Rinconcito Paisa","lat":40.703667,"lon":-73.822321,"puma":"3604409","puma_name":"Kew Gardens, Richmond Hill, & Woodhaven","cuisine":"Latin American","boro":"Queens","rating":null,"price":null,"fsq_id":null},{"name":"El Rinconcito Paisa 4 Colombian Restaurant & Bakery","lat":40.69652,"lon":-73.837682,"puma":"3604409","puma_name":"Kew Gardens, Richmond Hill, & Woodhaven","cuisine":"Latin American","boro":"Queens","rating":null,"price":null,"fsq_id":null},{"name":"El Rodeo","lat":40.742016,"lon":-73.91894,"puma":"3604402","puma_name":"Long Island City, Sunnyside, & Woodside","cuisine":"Latin American","boro":"Queens","rating":null,"price":null,"fsq_id":null},{"name":"El Rumbero","lat":40.755577,"lon":-73.8852,"puma":"3604403","puma_name":"Jackson Heights & East Elmhurst","cuisine":"Latin American","boro":"Queens","rating":null,"price":null,"fsq_id":null},{"name":"El Sabor Restaurant","lat":40.846076,"lon":-73.938494,"puma":"3604112","puma_name":"Washington Heights & Inwood","cuisine":"Latin American","boro":"Manhattan","rating":null,"price":null,"fsq_id":null},{"name":"El Sabroso Coffee Shop","lat":40.745945,"lon":-73.89987,"puma":"3604402","puma_name":"Long Island City, Sunnyside, & Woodside","cuisine":"Latin American","boro":"Queens","rating":null,"price":null,"fsq_id":null},{"name":"El Tablon Latino Corp","lat":40.848143,"lon":-73.932781,"puma":"3604112","puma_name":"Washington Heights & Inwood","cuisine":"Latin American","boro":"Manhattan","rating":null,"price":null,"fsq_id":null},{"name":"El Tucanazo","lat":40.74736,"lon":-73.88655,"puma":"3604403","puma_name":"Jackson Heights & East Elmhurst","cuisine":"Latin American","boro":"Queens","rating":null,"price":null,"fsq_id":null},{"name":"El Viejo Yayo","lat":40.684817,"lon":-73.844009,"puma":"3604409","puma_name":"Kew Gardens, Richmond Hill, & Woodhaven","cuisine":"Latin American","boro":"Queens","rating":null,"price":null,"fsq_id":null},{"name":"El Zocalo","lat":40.747409,"lon":-73.882945,"puma":"3604404","puma_name":"Elmhurst & Corona","cuisine":"Latin American","boro":"Queens","rating":null,"price":null,"fsq_id":null},{"name":"Elsa La Reina Del Chicharron","lat":40.866423,"lon":-73.924714,"puma":"3604112","puma_name":"Washington Heights & Inwood","cuisine":"Latin American","boro":"Manhattan","rating":null,"price":null,"fsq_id":null},{"name":"Elsa Restaurant La Reina Del Chicharron","lat":40.843762,"lon":-73.937802,"puma":"3604112","puma_name":"Washington Heights & Inwood","cuisine":"Latin American","boro":"Manhattan","rating":null,"price":null,"fsq_id":null},{"name":"Ema Latin Restaurant Bar","lat":40.743094,"lon":-73.897413,"puma":"3604402","puma_name":"Long Island City, Sunnyside, & Woodside","cuisine":"Latin American","boro":"Queens","rating":null,"price":null,"fsq_id":null},{"name":"Empanada City","lat":40.707735,"lon":-73.920497,"puma":"3604304","puma_name":"Bushwick","cuisine":"Latin American","boro":"Brooklyn","rating":null,"price":null,"fsq_id":null},{"name":"Empanadas Cafe","lat":40.740167,"lon":-73.853258,"puma":"3604404","puma_name":"Elmhurst & Corona","cuisine":"Latin American","boro":"Queens","rating":null,"price":null,"fsq_id":null},{"name":"Empanadas Monumental","lat":40.85407,"lon":-73.930266,"puma":"3604112","puma_name":"Washington Heights & Inwood","cuisine":"Latin American","boro":"Manhattan","rating":null,"price":null,"fsq_id":null},{"name":"Encebollado Machaleno","lat":40.703071,"lon":-73.895386,"puma":"3604405","puma_name":"Ridgewood, Maspeth, & Middle Village","cuisine":"Latin American","boro":"Queens","rating":null,"price":null,"fsq_id":null},{"name":"Equis Pica Pollo Restaurant","lat":40.865184,"lon":-73.919596,"puma":"3604112","puma_name":"Washington Heights & Inwood","cuisine":"Latin American","boro":"Manhattan","rating":null,"price":null,"fsq_id":null},{"name":"Escuelita Vip Bar","lat":40.747368,"lon":-73.868505,"puma":"3604404","puma_name":"Elmhurst & Corona","cuisine":"Latin American","boro":"Queens","rating":null,"price":null,"fsq_id":null},{"name":"Estrella Latina","lat":40.750517,"lon":-73.862024,"puma":"3604403","puma_name":"Jackson Heights & East Elmhurst","cuisine":"Latin American","boro":"Queens","rating":null,"price":null,"fsq_id":null},{"name":"Euros El Tina Restaurant Lounge And Billiards","lat":40.864459,"lon":-73.918975,"puma":"3604112","puma_name":"Washington Heights & Inwood","cuisine":"Latin American","boro":"Manhattan","rating":null,"price":null,"fsq_id":null},{"name":"Fabrika","lat":40.755381,"lon":-73.886926,"puma":"3604403","puma_name":"Jackson Heights & East Elmhurst","cuisine":"Latin American","boro":"Queens","rating":null,"price":null,"fsq_id":null},{"name":"Fito","lat":40.864976,"lon":-73.928273,"puma":"3604112","puma_name":"Washington Heights & Inwood","cuisine":"Latin American","boro":"Manhattan","rating":null,"price":null,"fsq_id":null},{"name":"Flamingo","lat":40.747934,"lon":-73.880915,"puma":"3604404","puma_name":"Elmhurst & Corona","cuisine":"Latin American","boro":"Queens","rating":null,"price":null,"fsq_id":null},{"name":"Florence  Diner","lat":40.747119,"lon":-73.883833,"puma":"3604404","puma_name":"Elmhurst & Corona","cuisine":"Latin American","boro":"Queens","rating":null,"price":null,"fsq_id":null},{"name":"Floridita 3865","lat":40.864009,"lon":-73.919268,"puma":"3604112","puma_name":"Washington Heights & Inwood","cuisine":"Latin American","boro":"Manhattan","rating":null,"price":null,"fsq_id":null},{"name":"Floridita Restaurant Uptown","lat":40.847056,"lon":-73.938175,"puma":"3604112","puma_name":"Washington Heights & Inwood","cuisine":"Latin American","boro":"Manhattan","rating":null,"price":null,"fsq_id":null},{"name":"Friend'S Tavern","lat":40.747268,"lon":-73.887442,"puma":"3604403","puma_name":"Jackson Heights & East Elmhurst","cuisine":"Latin American","boro":"Queens","rating":null,"price":null,"fsq_id":null},{"name":"Galicia","lat":40.755658,"lon":-73.884284,"puma":"3604403","puma_name":"Jackson Heights & East Elmhurst","cuisine":"Latin American","boro":"Queens","rating":null,"price":null,"fsq_id":null},{"name":"Gallego Seafood","lat":40.844533,"lon":-73.937212,"puma":"3604112","puma_name":"Washington Heights & Inwood","cuisine":"Latin American","boro":"Manhattan","rating":null,"price":null,"fsq_id":null},{"name":"Gata Golosa","lat":40.750447,"lon":-73.877666,"puma":"3604403","puma_name":"Jackson Heights & East Elmhurst","cuisine":"Latin American","boro":"Queens","rating":null,"price":null,"fsq_id":null},{"name":"Gata Golosa / Yogurberry","lat":40.747548,"lon":-73.884583,"puma":"3604404","puma_name":"Elmhurst & Corona","cuisine":"Latin American","boro":"Queens","rating":null,"price":null,"fsq_id":null},{"name":"Grano De Cafe","lat":40.757139,"lon":-73.870196,"puma":"3604403","puma_name":"Jackson Heights & East Elmhurst","cuisine":"Latin American","boro":"Queens","rating":null,"price":null,"fsq_id":null},{"name":"Greenpoint Cafe & Bakery","lat":40.740041,"lon":-73.92389,"puma":"3604402","puma_name":"Long Island City, Sunnyside, & Woodside","cuisine":"Latin American","boro":"Queens","rating":null,"price":null,"fsq_id":null},{"name":"Guacuco","lat":40.704746,"lon":-73.924479,"puma":"3604304","puma_name":"Bushwick","cuisine":"Latin American","boro":"Brooklyn","rating":null,"price":null,"fsq_id":null},{"name":"Guayaco'S","lat":40.746141,"lon":-73.883578,"puma":"3604404","puma_name":"Elmhurst & Corona","cuisine":"Latin American","boro":"Queens","rating":null,"price":null,"fsq_id":null},{"name":"Gury'S Market","lat":40.746873,"lon":-73.891174,"puma":"3604403","puma_name":"Jackson Heights & East Elmhurst","cuisine":"Latin American","boro":"Queens","rating":null,"price":null,"fsq_id":null},{"name":"Gustoso Restaurant","lat":40.683461,"lon":-73.872864,"puma":"3604305","puma_name":"East New York & Cypress Hills","cuisine":"Latin American","boro":"Brooklyn","rating":null,"price":null,"fsq_id":null},{"name":"Hairo'S","lat":40.747556,"lon":-73.884666,"puma":"3604403","puma_name":"Jackson Heights & East Elmhurst","cuisine":"Latin American","boro":"Queens","rating":null,"price":null,"fsq_id":null},{"name":"Happy Coffee Shop","lat":40.676077,"lon":-73.893554,"puma":"3604305","puma_name":"East New York & Cypress Hills","cuisine":"Latin American","boro":"Brooklyn","rating":null,"price":null,"fsq_id":null},{"name":"Havana Height","lat":40.844068,"lon":-73.939316,"puma":"3604112","puma_name":"Washington Heights & Inwood","cuisine":"Latin American","boro":"Manhattan","rating":null,"price":null,"fsq_id":null},{"name":"Hombres Lounge","lat":40.750061,"lon":-73.881193,"puma":"3604403","puma_name":"Jackson Heights & East Elmhurst","cuisine":"Latin American","boro":"Queens","rating":null,"price":null,"fsq_id":null},{"name":"Hoy Se Bebe","lat":40.747265,"lon":-73.88747,"puma":"3604403","puma_name":"Jackson Heights & East Elmhurst","cuisine":"Latin American","boro":"Queens","rating":null,"price":null,"fsq_id":null},{"name":"I Love Paraguay","lat":40.741003,"lon":-73.92172,"puma":"3604402","puma_name":"Long Island City, Sunnyside, & Woodside","cuisine":"Latin American","boro":"Queens","rating":null,"price":null,"fsq_id":null},{"name":"Immanuel Restaurant","lat":40.661247,"lon":-73.879506,"puma":"3604305","puma_name":"East New York & Cypress Hills","cuisine":"Latin American","boro":"Brooklyn","rating":null,"price":null,"fsq_id":null},{"name":"International Coffee Shop","lat":40.700502,"lon":-73.898311,"puma":"3604405","puma_name":"Ridgewood, Maspeth, & Middle Village","cuisine":"Latin American","boro":"Queens","rating":null,"price":null,"fsq_id":null},{"name":"International Coffee Shop","lat":40.661869,"lon":-73.873471,"puma":"3604305","puma_name":"East New York & Cypress Hills","cuisine":"Latin American","boro":"Brooklyn","rating":null,"price":null,"fsq_id":null},{"name":"Jairo Y Anthony Grocery Deli","lat":40.841801,"lon":-73.935512,"puma":"3604112","puma_name":"Washington Heights & Inwood","cuisine":"Latin American","boro":"Manhattan","rating":null,"price":null,"fsq_id":null},{"name":"Jakaru","lat":40.750864,"lon":-73.858273,"puma":"3604403","puma_name":"Jackson Heights & East Elmhurst","cuisine":"Latin American","boro":"Queens","rating":null,"price":null,"fsq_id":null},{"name":"Jalao Nyc/Lobby","lat":40.847546,"lon":-73.931314,"puma":"3604112","puma_name":"Washington Heights & Inwood","cuisine":"Latin American","boro":"Manhattan","rating":null,"price":null,"fsq_id":null},{"name":"Jarto'E Sazon","lat":40.848947,"lon":-73.932874,"puma":"3604112","puma_name":"Washington Heights & Inwood","cuisine":"Latin American","boro":"Manhattan","rating":null,"price":null,"fsq_id":null},{"name":"Jay & Son Latin Flavor","lat":40.698219,"lon":-73.93744,"puma":"3604304","puma_name":"Bushwick","cuisine":"Latin American","boro":"Brooklyn","rating":null,"price":null,"fsq_id":null},{"name":"Jaya Restaurant","lat":40.841251,"lon":-73.937793,"puma":"3604112","puma_name":"Washington Heights & Inwood","cuisine":"Latin American","boro":"Manhattan","rating":null,"price":null,"fsq_id":null},{"name":"Johnny Deli & Grocery","lat":40.702165,"lon":-73.82019,"puma":"3604409","puma_name":"Kew Gardens, Richmond Hill, & Woodhaven","cuisine":"Latin American","boro":"Queens","rating":null,"price":null,"fsq_id":null},{"name":"Jordan Snack Bar And Burger","lat":40.855779,"lon":-73.933113,"puma":"3604112","puma_name":"Washington Heights & Inwood","cuisine":"Latin American","boro":"Manhattan","rating":null,"price":null,"fsq_id":null},{"name":"Jr Valle Restaurant","lat":40.832426,"lon":-73.942369,"puma":"3604112","puma_name":"Washington Heights & Inwood","cuisine":"Latin American","boro":"Manhattan","rating":null,"price":null,"fsq_id":null},{"name":"Junction Seafood Restaurant","lat":40.753641,"lon":-73.871972,"puma":"3604403","puma_name":"Jackson Heights & East Elmhurst","cuisine":"Latin American","boro":"Queens","rating":null,"price":null,"fsq_id":null},{"name":"K'S Cafeteria","lat":40.745817,"lon":-73.856227,"puma":"3604404","puma_name":"Elmhurst & Corona","cuisine":"Latin American","boro":"Queens","rating":null,"price":null,"fsq_id":null},{"name":"Kabu","lat":40.755889,"lon":-73.88224,"puma":"3604403","puma_name":"Jackson Heights & East Elmhurst","cuisine":"Latin American","boro":"Queens","rating":null,"price":null,"fsq_id":null},{"name":"Kafra'S Bakery","lat":40.749955,"lon":-73.882164,"puma":"3604403","puma_name":"Jackson Heights & East Elmhurst","cuisine":"Latin American","boro":"Queens","rating":null,"price":null,"fsq_id":null},{"name":"Karamelo Bar & Kitchen","lat":40.861025,"lon":-73.926275,"puma":"3604112","puma_name":"Washington Heights & Inwood","cuisine":"Latin American","boro":"Manhattan","rating":null,"price":null,"fsq_id":null},{"name":"Kasamia","lat":40.713108,"lon":-73.900723,"puma":"3604405","puma_name":"Ridgewood, Maspeth, & Middle Village","cuisine":"Latin American","boro":"Queens","rating":null,"price":null,"fsq_id":null},{"name":"Kiwi Lime","lat":40.745724,"lon":-73.889177,"puma":"3604404","puma_name":"Elmhurst & Corona","cuisine":"Latin American","boro":"Queens","rating":null,"price":null,"fsq_id":null},{"name":"Krunchy Cueritos","lat":40.861099,"lon":-73.926116,"puma":"3604112","puma_name":"Washington Heights & Inwood","cuisine":"Latin American","boro":"Manhattan","rating":null,"price":null,"fsq_id":null},{"name":"La Abundancia","lat":40.749919,"lon":-73.899069,"puma":"3604402","puma_name":"Long Island City, Sunnyside, & Woodside","cuisine":"Latin American","boro":"Queens","rating":null,"price":null,"fsq_id":null},{"name":"La Abundancia Bakery & Restaurant","lat":40.746944,"lon":-73.890344,"puma":"3604404","puma_name":"Elmhurst & Corona","cuisine":"Latin American","boro":"Queens","rating":null,"price":null,"fsq_id":null},{"name":"La Abundancia Restaurant & Bakery","lat":40.747545,"lon":-73.884608,"puma":"3604404","puma_name":"Elmhurst & Corona","cuisine":"Latin American","boro":"Queens","rating":null,"price":null,"fsq_id":null},{"name":"La Autentica Ambatenita Bakery","lat":40.748863,"lon":-73.872266,"puma":"3604403","puma_name":"Jackson Heights & East Elmhurst","cuisine":"Latin American","boro":"Queens","rating":null,"price":null,"fsq_id":null},{"name":"La Barbi","lat":40.744538,"lon":-73.867814,"puma":"3604404","puma_name":"Elmhurst & Corona","cuisine":"Latin American","boro":"Queens","rating":null,"price":null,"fsq_id":null},{"name":"La Barca Restaurant","lat":40.837553,"lon":-73.942307,"puma":"3604112","puma_name":"Washington Heights & Inwood","cuisine":"Latin American","boro":"Manhattan","rating":null,"price":null,"fsq_id":null},{"name":"La Boom","lat":40.753533,"lon":-73.904669,"puma":"3604402","puma_name":"Long Island City, Sunnyside, & Woodside","cuisine":"Latin American","boro":"Queens","rating":null,"price":null,"fsq_id":null},{"name":"La Brisa Del Cibao","lat":40.752743,"lon":-73.864167,"puma":"3604403","puma_name":"Jackson Heights & East Elmhurst","cuisine":"Latin American","boro":"Queens","rating":null,"price":null,"fsq_id":null},{"name":"La Cabana","lat":40.750455,"lon":-73.862987,"puma":"3604403","puma_name":"Jackson Heights & East Elmhurst","cuisine":"Latin American","boro":"Queens","rating":null,"price":null,"fsq_id":null},{"name":"La Cabana Salvadorena","lat":40.854426,"lon":-73.933606,"puma":"3604112","puma_name":"Washington Heights & Inwood","cuisine":"Latin American","boro":"Manhattan","rating":null,"price":null,"fsq_id":null},{"name":"La Cafeteria","lat":40.693127,"lon":-73.92843,"puma":"3604304","puma_name":"Bushwick","cuisine":"Latin American","boro":"Brooklyn","rating":null,"price":null,"fsq_id":null},{"name":"La Caleta Ecuatoriana","lat":40.69902,"lon":-73.912711,"puma":"3604304","puma_name":"Bushwick","cuisine":"Latin American","boro":"Brooklyn","rating":null,"price":null,"fsq_id":null},{"name":"La Canoa","lat":40.704525,"lon":-73.908126,"puma":"3604405","puma_name":"Ridgewood, Maspeth, & Middle Village","cuisine":"Latin American","boro":"Queens","rating":null,"price":null,"fsq_id":null},{"name":"La Casa Del Cuy Asado","lat":40.757732,"lon":-73.863543,"puma":"3604403","puma_name":"Jackson Heights & East Elmhurst","cuisine":"Latin American","boro":"Queens","rating":null,"price":null,"fsq_id":null},{"name":"La Casa Del Mofongo And Piano Bar/ Barra Payan","lat":40.865973,"lon":-73.920123,"puma":"3604112","puma_name":"Washington Heights & Inwood","cuisine":"Latin American","boro":"Manhattan","rating":null,"price":null,"fsq_id":null},{"name":"La Cocina De Mama","lat":40.712943,"lon":-73.906787,"puma":"3604405","puma_name":"Ridgewood, Maspeth, & Middle Village","cuisine":"Latin American","boro":"Queens","rating":null,"price":null,"fsq_id":null},{"name":"La Cuesta","lat":40.675589,"lon":-73.888385,"puma":"3604305","puma_name":"East New York & Cypress Hills","cuisine":"Latin American","boro":"Brooklyn","rating":null,"price":null,"fsq_id":null},{"name":"La Dulce Bakery","lat":40.746152,"lon":-73.89791,"puma":"3604402","puma_name":"Long Island City, Sunnyside, & Woodside","cuisine":"Latin American","boro":"Queens","rating":null,"price":null,"fsq_id":null},{"name":"La Elegancia","lat":40.750352,"lon":-73.878417,"puma":"3604403","puma_name":"Jackson Heights & East Elmhurst","cuisine":"Latin American","boro":"Queens","rating":null,"price":null,"fsq_id":null},{"name":"La Esquina Criolla","lat":40.742303,"lon":-73.869468,"puma":"3604404","puma_name":"Elmhurst & Corona","cuisine":"Latin American","boro":"Queens","rating":null,"price":null,"fsq_id":null},{"name":"La Esquina Criolla #2","lat":40.737474,"lon":-73.895927,"puma":"3604402","puma_name":"Long Island City, Sunnyside, & Woodside","cuisine":"Latin American","boro":"Queens","rating":null,"price":null,"fsq_id":null},{"name":"La Esquina Del Sabor","lat":40.757245,"lon":-73.869352,"puma":"3604403","puma_name":"Jackson Heights & East Elmhurst","cuisine":"Latin American","boro":"Queens","rating":null,"price":null,"fsq_id":null},{"name":"La Esquinita Latin Food","lat":40.700822,"lon":-73.894106,"puma":"3604405","puma_name":"Ridgewood, Maspeth, & Middle Village","cuisine":"Latin American","boro":"Queens","rating":null,"price":null,"fsq_id":null},{"name":"La Flaca","lat":40.747502,"lon":-73.863026,"puma":"3604404","puma_name":"Elmhurst & Corona","cuisine":"Latin American","boro":"Queens","rating":null,"price":null,"fsq_id":null},{"name":"La Flor Del Canario Restaurant","lat":40.672736,"lon":-73.890181,"puma":"3604305","puma_name":"East New York & Cypress Hills","cuisine":"Latin American","boro":"Brooklyn","rating":null,"price":null,"fsq_id":null},{"name":"La Flor Del Paraiso","lat":40.700346,"lon":-73.905453,"puma":"3604405","puma_name":"Ridgewood, Maspeth, & Middle Village","cuisine":"Latin American","boro":"Queens","rating":null,"price":null,"fsq_id":null},{"name":"La Fusta","lat":40.744707,"lon":-73.88457,"puma":"3604404","puma_name":"Elmhurst & Corona","cuisine":"Latin American","boro":"Queens","rating":null,"price":null,"fsq_id":null},{"name":"La Gitana","lat":40.692868,"lon":-73.854477,"puma":"3604409","puma_name":"Kew Gardens, Richmond Hill, & Woodhaven","cuisine":"Latin American","boro":"Queens","rating":null,"price":null,"fsq_id":null},{"name":"La Gitana #4","lat":40.750567,"lon":-73.87654,"puma":"3604403","puma_name":"Jackson Heights & East Elmhurst","cuisine":"Latin American","boro":"Queens","rating":null,"price":null,"fsq_id":null},{"name":"La Gualacena","lat":40.702135,"lon":-73.915772,"puma":"3604304","puma_name":"Bushwick","cuisine":"Latin American","boro":"Brooklyn","rating":null,"price":null,"fsq_id":null},{"name":"La Guardia Cafe","lat":40.768432,"lon":-73.873239,"puma":"3604403","puma_name":"Jackson Heights & East Elmhurst","cuisine":"Latin American","boro":"Queens","rating":null,"price":null,"fsq_id":null},{"name":"La Hueca","lat":40.750852,"lon":-73.873814,"puma":"3604403","puma_name":"Jackson Heights & East Elmhurst","cuisine":"Latin American","boro":"Queens","rating":null,"price":null,"fsq_id":null},{"name":"La Hueca Ecuatoriana","lat":40.698832,"lon":-73.918124,"puma":"3604304","puma_name":"Bushwick","cuisine":"Latin American","boro":"Brooklyn","rating":null,"price":null,"fsq_id":null},{"name":"La Kuchara","lat":40.760576,"lon":-73.873269,"puma":"3604403","puma_name":"Jackson Heights & East Elmhurst","cuisine":"Latin American","boro":"Queens","rating":null,"price":null,"fsq_id":null},{"name":"La Michoacana","lat":40.704581,"lon":-73.924187,"puma":"3604304","puma_name":"Bushwick","cuisine":"Latin American","boro":"Brooklyn","rating":null,"price":null,"fsq_id":null},{"name":"La Mitad Del Mundo","lat":40.749981,"lon":-73.861408,"puma":"3604404","puma_name":"Elmhurst & Corona","cuisine":"Latin American","boro":"Queens","rating":null,"price":null,"fsq_id":null},{"name":"La Montana","lat":40.757466,"lon":-73.860923,"puma":"3604403","puma_name":"Jackson Heights & East Elmhurst","cuisine":"Latin American","boro":"Queens","rating":null,"price":null,"fsq_id":null},{"name":"La Montanita Bar Restaurant","lat":40.757348,"lon":-73.868225,"puma":"3604403","puma_name":"Jackson Heights & East Elmhurst","cuisine":"Latin American","boro":"Queens","rating":null,"price":null,"fsq_id":null},{"name":"La Morenita Ecuatoriana","lat":40.757343,"lon":-73.868268,"puma":"3604403","puma_name":"Jackson Heights & East Elmhurst","cuisine":"Latin American","boro":"Queens","rating":null,"price":null,"fsq_id":null},{"name":"La Nueva 90 Bakery","lat":40.750114,"lon":-73.876811,"puma":"3604403","puma_name":"Jackson Heights & East Elmhurst","cuisine":"Latin American","boro":"Queens","rating":null,"price":null,"fsq_id":null},{"name":"La Nueva Colombia","lat":40.760133,"lon":-73.877489,"puma":"3604403","puma_name":"Jackson Heights & East Elmhurst","cuisine":"Latin American","boro":"Queens","rating":null,"price":null,"fsq_id":null},{"name":"La Nueva Delicia","lat":40.750833,"lon":-73.87384,"puma":"3604403","puma_name":"Jackson Heights & East Elmhurst","cuisine":"Latin American","boro":"Queens","rating":null,"price":null,"fsq_id":null},{"name":"La Parrillada Colombiana","lat":40.713396,"lon":-73.914026,"puma":"3604405","puma_name":"Ridgewood, Maspeth, & Middle Village","cuisine":"Latin American","boro":"Queens","rating":null,"price":null,"fsq_id":null},{"name":"La Pequena Colombia","lat":40.747792,"lon":-73.882446,"puma":"3604403","puma_name":"Jackson Heights & East Elmhurst","cuisine":"Latin American","boro":"Queens","rating":null,"price":null,"fsq_id":null},{"name":"La Perla Del Ulua","lat":40.703683,"lon":-73.928026,"puma":"3604304","puma_name":"Bushwick","cuisine":"Latin American","boro":"Brooklyn","rating":null,"price":null,"fsq_id":null},{"name":"La Perrada De Chalo","lat":40.755666,"lon":-73.884219,"puma":"3604403","puma_name":"Jackson Heights & East Elmhurst","cuisine":"Latin American","boro":"Queens","rating":null,"price":null,"fsq_id":null},{"name":"La Pollera De Mario","lat":40.740098,"lon":-73.923757,"puma":"3604402","puma_name":"Long Island City, Sunnyside, & Woodside","cuisine":"Latin American","boro":"Queens","rating":null,"price":null,"fsq_id":null},{"name":"La Potranca","lat":40.699001,"lon":-73.91649,"puma":"3604304","puma_name":"Bushwick","cuisine":"Latin American","boro":"Brooklyn","rating":null,"price":null,"fsq_id":null},{"name":"La Ricura Restaurant Bakery","lat":40.750659,"lon":-73.875659,"puma":"3604403","puma_name":"Jackson Heights & East Elmhurst","cuisine":"Latin American","boro":"Queens","rating":null,"price":null,"fsq_id":null},{"name":"La Sala By Tu Casa","lat":40.707175,"lon":-73.835167,"puma":"3604409","puma_name":"Kew Gardens, Richmond Hill, & Woodhaven","cuisine":"Latin American","boro":"Queens","rating":null,"price":null,"fsq_id":null},{"name":"La Sazon De La China","lat":40.756965,"lon":-73.872023,"puma":"3604403","puma_name":"Jackson Heights & East Elmhurst","cuisine":"Latin American","boro":"Queens","rating":null,"price":null,"fsq_id":null},{"name":"La Victoria Mx Restaurant","lat":40.838945,"lon":-73.937571,"puma":"3604112","puma_name":"Washington Heights & Inwood","cuisine":"Latin American","boro":"Manhattan","rating":null,"price":null,"fsq_id":null},{"name":"La Vienesa","lat":40.743865,"lon":-73.924871,"puma":"3604402","puma_name":"Long Island City, Sunnyside, & Woodside","cuisine":"Latin American","boro":"Queens","rating":null,"price":null,"fsq_id":null},{"name":"Las Margaritas Restaurant & Sports Bar","lat":40.74986,"lon":-73.883092,"puma":"3604403","puma_name":"Jackson Heights & East Elmhurst","cuisine":"Latin American","boro":"Queens","rating":null,"price":null,"fsq_id":null},{"name":"Las Tias","lat":40.712842,"lon":-73.878204,"puma":"3604405","puma_name":"Ridgewood, Maspeth, & Middle Village","cuisine":"Latin American","boro":"Queens","rating":null,"price":null,"fsq_id":null},{"name":"Las Toxicas","lat":40.747182,"lon":-73.883847,"puma":"3604404","puma_name":"Elmhurst & Corona","cuisine":"Latin American","boro":"Queens","rating":null,"price":null,"fsq_id":null},{"name":"Latino Bites","lat":40.755781,"lon":-73.883276,"puma":"3604403","puma_name":"Jackson Heights & East Elmhurst","cuisine":"Latin American","boro":"Queens","rating":null,"price":null,"fsq_id":null},{"name":"Latino Bites","lat":40.742697,"lon":-73.918802,"puma":"3604402","puma_name":"Long Island City, Sunnyside, & Woodside","cuisine":"Latin American","boro":"Queens","rating":null,"price":null,"fsq_id":null},{"name":"Lechon Hornado Ecuatoriano","lat":40.74705,"lon":-73.889322,"puma":"3604404","puma_name":"Elmhurst & Corona","cuisine":"Latin American","boro":"Queens","rating":null,"price":null,"fsq_id":null},{"name":"Lechoneria New York Ii","lat":40.755783,"lon":-73.883262,"puma":"3604403","puma_name":"Jackson Heights & East Elmhurst","cuisine":"Latin American","boro":"Queens","rating":null,"price":null,"fsq_id":null},{"name":"Lechoneria Ny","lat":40.732728,"lon":-73.895888,"puma":"3604405","puma_name":"Ridgewood, Maspeth, & Middle Village","cuisine":"Latin American","boro":"Queens","rating":null,"price":null,"fsq_id":null},{"name":"Leo'S","lat":40.747858,"lon":-73.88181,"puma":"3604404","puma_name":"Elmhurst & Corona","cuisine":"Latin American","boro":"Queens","rating":null,"price":null,"fsq_id":null},{"name":"Leo'S","lat":40.695202,"lon":-73.84268,"puma":"3604409","puma_name":"Kew Gardens, Richmond Hill, & Woodhaven","cuisine":"Latin American","boro":"Queens","rating":null,"price":null,"fsq_id":null},{"name":"Leticias Restaurant","lat":40.748965,"lon":-73.863034,"puma":"3604404","puma_name":"Elmhurst & Corona","cuisine":"Latin American","boro":"Queens","rating":null,"price":null,"fsq_id":null},{"name":"Lina Restaurant","lat":40.864459,"lon":-73.918975,"puma":"3604112","puma_name":"Washington Heights & Inwood","cuisine":"Latin American","boro":"Manhattan","rating":null,"price":null,"fsq_id":null},{"name":"Linda Azoguenita Bakery & Restaurant","lat":40.743845,"lon":-73.85521,"puma":"3604404","puma_name":"Elmhurst & Corona","cuisine":"Latin American","boro":"Queens","rating":null,"price":null,"fsq_id":null},{"name":"Liquid","lat":40.864053,"lon":-73.919214,"puma":"3604112","puma_name":"Washington Heights & Inwood","cuisine":"Latin American","boro":"Manhattan","rating":null,"price":null,"fsq_id":null},{"name":"Lobster Steakhouse Restaurant","lat":40.848993,"lon":-73.937349,"puma":"3604112","puma_name":"Washington Heights & Inwood","cuisine":"Latin American","boro":"Manhattan","rating":null,"price":null,"fsq_id":null},{"name":"Los Chuzos","lat":40.747357,"lon":-73.886579,"puma":"3604403","puma_name":"Jackson Heights & East Elmhurst","cuisine":"Latin American","boro":"Queens","rating":null,"price":null,"fsq_id":null},{"name":"Los Cuencanitos","lat":40.744793,"lon":-73.910272,"puma":"3604402","puma_name":"Long Island City, Sunnyside, & Woodside","cuisine":"Latin American","boro":"Queens","rating":null,"price":null,"fsq_id":null},{"name":"Los Mismos Amigos","lat":40.75,"lon":-73.861379,"puma":"3604403","puma_name":"Jackson Heights & East Elmhurst","cuisine":"Latin American","boro":"Queens","rating":null,"price":null,"fsq_id":null},{"name":"Los Paisitas Bakery & Restaurant","lat":40.736444,"lon":-73.877999,"puma":"3604404","puma_name":"Elmhurst & Corona","cuisine":"Latin American","boro":"Queens","rating":null,"price":null,"fsq_id":null},{"name":"Lost In Paradise / The Newsroom","lat":40.75178,"lon":-73.947925,"puma":"3604402","puma_name":"Long Island City, Sunnyside, & Woodside","cuisine":"Latin American","boro":"Queens","rating":null,"price":null,"fsq_id":null},{"name":"Lugo","lat":40.696427,"lon":-73.900114,"puma":"3604405","puma_name":"Ridgewood, Maspeth, & Middle Village","cuisine":"Latin American","boro":"Queens","rating":null,"price":null,"fsq_id":null},{"name":"Luisa Chimichurry","lat":40.847065,"lon":-73.935388,"puma":"3604112","puma_name":"Washington Heights & Inwood","cuisine":"Latin American","boro":"Manhattan","rating":null,"price":null,"fsq_id":null},{"name":"Luz De America","lat":40.750175,"lon":-73.860548,"puma":"3604404","puma_name":"Elmhurst & Corona","cuisine":"Latin American","boro":"Queens","rating":null,"price":null,"fsq_id":null},{"name":"M&S Nice Restaurant","lat":40.701312,"lon":-73.905155,"puma":"3604405","puma_name":"Ridgewood, Maspeth, & Middle Village","cuisine":"Latin American","boro":"Queens","rating":null,"price":null,"fsq_id":null},{"name":"Madera","lat":40.744679,"lon":-73.953438,"puma":"3604402","puma_name":"Long Island City, Sunnyside, & Woodside","cuisine":"Latin American","boro":"Queens","rating":null,"price":null,"fsq_id":null},{"name":"Mama Leti'S Cafe","lat":40.74889,"lon":-73.86926,"puma":"3604404","puma_name":"Elmhurst & Corona","cuisine":"Latin American","boro":"Queens","rating":null,"price":null,"fsq_id":null},{"name":"Mama Lupe","lat":40.747494,"lon":-73.863022,"puma":"3604404","puma_name":"Elmhurst & Corona","cuisine":"Latin American","boro":"Queens","rating":null,"price":null,"fsq_id":null},{"name":"Mama Rosa'S","lat":40.748986,"lon":-73.869339,"puma":"3604404","puma_name":"Elmhurst & Corona","cuisine":"Latin American","boro":"Queens","rating":null,"price":null,"fsq_id":null},{"name":"Mama'S","lat":40.74745,"lon":-73.885554,"puma":"3604404","puma_name":"Elmhurst & Corona","cuisine":"Latin American","boro":"Queens","rating":null,"price":null,"fsq_id":null},{"name":"Mama'S Empanadas","lat":40.755878,"lon":-73.882359,"puma":"3604403","puma_name":"Jackson Heights & East Elmhurst","cuisine":"Latin American","boro":"Queens","rating":null,"price":null,"fsq_id":null},{"name":"Mama'S Empanadas","lat":40.733945,"lon":-73.869773,"puma":"3604404","puma_name":"Elmhurst & Corona","cuisine":"Latin American","boro":"Queens","rating":null,"price":null,"fsq_id":null},{"name":"Mamajuana Cafe","lat":40.86637,"lon":-73.928261,"puma":"3604112","puma_name":"Washington Heights & Inwood","cuisine":"Latin American","boro":"Manhattan","rating":null,"price":null,"fsq_id":null},{"name":"Mambi Steakhouse","lat":40.847632,"lon":-73.938015,"puma":"3604112","puma_name":"Washington Heights & Inwood","cuisine":"Latin American","boro":"Manhattan","rating":null,"price":null,"fsq_id":null},{"name":"Mami Ysabel","lat":40.715171,"lon":-73.913097,"puma":"3604405","puma_name":"Ridgewood, Maspeth, & Middle Village","cuisine":"Latin American","boro":"Queens","rating":null,"price":null,"fsq_id":null},{"name":"Manuel E","lat":40.744075,"lon":-73.859446,"puma":"3604404","puma_name":"Elmhurst & Corona","cuisine":"Latin American","boro":"Queens","rating":null,"price":null,"fsq_id":null},{"name":"Maraca Nyc","lat":40.862026,"lon":-73.920688,"puma":"3604112","puma_name":"Washington Heights & Inwood","cuisine":"Latin American","boro":"Manhattan","rating":null,"price":null,"fsq_id":null},{"name":"Maria On The Grill","lat":40.675203,"lon":-73.873208,"puma":"3604305","puma_name":"East New York & Cypress Hills","cuisine":"Latin American","boro":"Brooklyn","rating":null,"price":null,"fsq_id":null},{"name":"Marilu & Daysi Restaurant","lat":40.845122,"lon":-73.934985,"puma":"3604112","puma_name":"Washington Heights & Inwood","cuisine":"Latin American","boro":"Manhattan","rating":null,"price":null,"fsq_id":null},{"name":"Masa Madre","lat":40.740161,"lon":-73.919286,"puma":"3604402","puma_name":"Long Island City, Sunnyside, & Woodside","cuisine":"Latin American","boro":"Queens","rating":null,"price":null,"fsq_id":null},{"name":"Matecana Bakery & Restaurant","lat":40.745803,"lon":-73.856241,"puma":"3604404","puma_name":"Elmhurst & Corona","cuisine":"Latin American","boro":"Queens","rating":null,"price":null,"fsq_id":null},{"name":"Mb Bar Boutique","lat":40.746264,"lon":-73.89133,"puma":"3604404","puma_name":"Elmhurst & Corona","cuisine":"Latin American","boro":"Queens","rating":null,"price":null,"fsq_id":null},{"name":"Melany Restaurant Ii","lat":40.702943,"lon":-73.925653,"puma":"3604304","puma_name":"Bushwick","cuisine":"Latin American","boro":"Brooklyn","rating":null,"price":null,"fsq_id":null},{"name":"Metro Coffee Shop","lat":40.650545,"lon":-73.90224,"puma":"3604305","puma_name":"East New York & Cypress Hills","cuisine":"Latin American","boro":"Brooklyn","rating":null,"price":null,"fsq_id":null},{"name":"Mi Casa Restaurant Con Ncy","lat":40.853409,"lon":-73.930722,"puma":"3604112","puma_name":"Washington Heights & Inwood","cuisine":"Latin American","boro":"Manhattan","rating":null,"price":null,"fsq_id":null},{"name":"Mi Linda Guatemala","lat":40.747444,"lon":-73.885608,"puma":"3604404","puma_name":"Elmhurst & Corona","cuisine":"Latin American","boro":"Queens","rating":null,"price":null,"fsq_id":null},{"name":"Mi Paso Centro Americano Restaurant","lat":40.845813,"lon":-73.938573,"puma":"3604112","puma_name":"Washington Heights & Inwood","cuisine":"Latin American","boro":"Manhattan","rating":null,"price":null,"fsq_id":null},{"name":"Mi Pequeno El Salvador","lat":40.750955,"lon":-73.872486,"puma":"3604403","puma_name":"Jackson Heights & East Elmhurst","cuisine":"Latin American","boro":"Queens","rating":null,"price":null,"fsq_id":null},{"name":"Milenio","lat":40.751838,"lon":-73.869784,"puma":"3604403","puma_name":"Jackson Heights & East Elmhurst","cuisine":"Latin American","boro":"Queens","rating":null,"price":null,"fsq_id":null},{"name":"Miracali Bakery #1","lat":40.742011,"lon":-73.91894,"puma":"3604402","puma_name":"Long Island City, Sunnyside, & Woodside","cuisine":"Latin American","boro":"Queens","rating":null,"price":null,"fsq_id":null},{"name":"Mis Tierras Colombianas","lat":40.715963,"lon":-73.901524,"puma":"3604405","puma_name":"Ridgewood, Maspeth, & Middle Village","cuisine":"Latin American","boro":"Queens","rating":null,"price":null,"fsq_id":null},{"name":"Mis Tierras Colombianas","lat":40.744779,"lon":-73.910341,"puma":"3604402","puma_name":"Long Island City, Sunnyside, & Woodside","cuisine":"Latin American","boro":"Queens","rating":null,"price":null,"fsq_id":null},{"name":"Mister Cangrejo","lat":40.747363,"lon":-73.886539,"puma":"3604403","puma_name":"Jackson Heights & East Elmhurst","cuisine":"Latin American","boro":"Queens","rating":null,"price":null,"fsq_id":null},{"name":"Mojitos","lat":40.755476,"lon":-73.886161,"puma":"3604403","puma_name":"Jackson Heights & East Elmhurst","cuisine":"Latin American","boro":"Queens","rating":null,"price":null,"fsq_id":null},{"name":"Montielle Cafe","lat":40.750654,"lon":-73.875699,"puma":"3604403","puma_name":"Jackson Heights & East Elmhurst","cuisine":"Latin American","boro":"Queens","rating":null,"price":null,"fsq_id":null},{"name":"Morocho Bakery","lat":40.751689,"lon":-73.855402,"puma":"3604404","puma_name":"Elmhurst & Corona","cuisine":"Latin American","boro":"Queens","rating":null,"price":null,"fsq_id":null},{"name":"Mr. Cebas","lat":40.749175,"lon":-73.869281,"puma":"3604403","puma_name":"Jackson Heights & East Elmhurst","cuisine":"Latin American","boro":"Queens","rating":null,"price":null,"fsq_id":null},{"name":"Mr. Chimi Nyc","lat":40.699192,"lon":-73.914517,"puma":"3604304","puma_name":"Bushwick","cuisine":"Latin American","boro":"Brooklyn","rating":null,"price":null,"fsq_id":null},{"name":"Mr. Fire Bar & Grill","lat":40.682132,"lon":-73.877518,"puma":"3604305","puma_name":"East New York & Cypress Hills","cuisine":"Latin American","boro":"Brooklyn","rating":null,"price":null,"fsq_id":null},{"name":"My Jarabacoa","lat":40.709527,"lon":-73.898788,"puma":"3604405","puma_name":"Ridgewood, Maspeth, & Middle Village","cuisine":"Latin American","boro":"Queens","rating":null,"price":null,"fsq_id":null},{"name":"Nana'S Kitchen","lat":40.76003,"lon":-73.878457,"puma":"3604403","puma_name":"Jackson Heights & East Elmhurst","cuisine":"Latin American","boro":"Queens","rating":null,"price":null,"fsq_id":null},{"name":"Napa In The Heights","lat":40.867508,"lon":-73.921737,"puma":"3604112","puma_name":"Washington Heights & Inwood","cuisine":"Latin American","boro":"Manhattan","rating":null,"price":null,"fsq_id":null},{"name":"Natividad Restaurant","lat":40.752757,"lon":-73.864199,"puma":"3604403","puma_name":"Jackson Heights & East Elmhurst","cuisine":"Latin American","boro":"Queens","rating":null,"price":null,"fsq_id":null},{"name":"Nelly'S Cakes","lat":40.664532,"lon":-73.886991,"puma":"3604305","puma_name":"East New York & Cypress Hills","cuisine":"Latin American","boro":"Brooklyn","rating":null,"price":null,"fsq_id":null},{"name":"New San Francisco Restaurant","lat":40.84062,"lon":-73.938253,"puma":"3604112","puma_name":"Washington Heights & Inwood","cuisine":"Latin American","boro":"Manhattan","rating":null,"price":null,"fsq_id":null},{"name":"New York Al Toque","lat":40.749849,"lon":-73.883186,"puma":"3604403","puma_name":"Jackson Heights & East Elmhurst","cuisine":"Latin American","boro":"Queens","rating":null,"price":null,"fsq_id":null},{"name":"Nickolas'","lat":40.735445,"lon":-73.894805,"puma":"3604402","puma_name":"Long Island City, Sunnyside, & Woodside","cuisine":"Latin American","boro":"Queens","rating":null,"price":null,"fsq_id":null},{"name":"Nomas Restaurant","lat":40.863968,"lon":-73.919272,"puma":"3604112","puma_name":"Washington Heights & Inwood","cuisine":"Latin American","boro":"Manhattan","rating":null,"price":null,"fsq_id":null},{"name":"Nowhere","lat":40.701689,"lon":-73.921814,"puma":"3604304","puma_name":"Bushwick","cuisine":"Latin American","boro":"Brooklyn","rating":null,"price":null,"fsq_id":null},{"name":"Nueva Ambatenita La Esquina Del Sabor","lat":40.751257,"lon":-73.859055,"puma":"3604403","puma_name":"Jackson Heights & East Elmhurst","cuisine":"Latin American","boro":"Queens","rating":null,"price":null,"fsq_id":null},{"name":"Nuevo Don Francisco","lat":40.748044,"lon":-73.868767,"puma":"3604404","puma_name":"Elmhurst & Corona","cuisine":"Latin American","boro":"Queens","rating":null,"price":null,"fsq_id":null},{"name":"Nuevo Latino Restaurante","lat":40.742374,"lon":-73.866909,"puma":"3604404","puma_name":"Elmhurst & Corona","cuisine":"Latin American","boro":"Queens","rating":null,"price":null,"fsq_id":null},{"name":"Nuevo Rincon Del Sabor Restaurant","lat":40.836405,"lon":-73.940017,"puma":"3604112","puma_name":"Washington Heights & Inwood","cuisine":"Latin American","boro":"Manhattan","rating":null,"price":null,"fsq_id":null},{"name":"Nutripan Colombian Bakery","lat":40.737122,"lon":-73.866028,"puma":"3604404","puma_name":"Elmhurst & Corona","cuisine":"Latin American","boro":"Queens","rating":null,"price":null,"fsq_id":null},{"name":"Paisa Picapollo","lat":40.839384,"lon":-73.937546,"puma":"3604112","puma_name":"Washington Heights & Inwood","cuisine":"Latin American","boro":"Manhattan","rating":null,"price":null,"fsq_id":null},{"name":"Paladares Colombian Bakery","lat":40.748482,"lon":-73.863176,"puma":"3604404","puma_name":"Elmhurst & Corona","cuisine":"Latin American","boro":"Queens","rating":null,"price":null,"fsq_id":null},{"name":"Palo Bar","lat":40.751314,"lon":-73.862459,"puma":"3604403","puma_name":"Jackson Heights & East Elmhurst","cuisine":"Latin American","boro":"Queens","rating":null,"price":null,"fsq_id":null},{"name":"Pan Fino Cafe Bakery","lat":40.755868,"lon":-73.882442,"puma":"3604403","puma_name":"Jackson Heights & East Elmhurst","cuisine":"Latin American","boro":"Queens","rating":null,"price":null,"fsq_id":null},{"name":"Pan Rico Ambateno Bakery","lat":40.701701,"lon":-73.915026,"puma":"3604304","puma_name":"Bushwick","cuisine":"Latin American","boro":"Brooklyn","rating":null,"price":null,"fsq_id":null},{"name":"Panorama","lat":40.764143,"lon":-73.88207,"puma":"3604403","puma_name":"Jackson Heights & East Elmhurst","cuisine":"Latin American","boro":"Queens","rating":null,"price":null,"fsq_id":null},{"name":"Papi Pica Pollo","lat":40.749159,"lon":-73.869266,"puma":"3604404","puma_name":"Elmhurst & Corona","cuisine":"Latin American","boro":"Queens","rating":null,"price":null,"fsq_id":null},{"name":"Parador Caleno","lat":40.741243,"lon":-73.919847,"puma":"3604402","puma_name":"Long Island City, Sunnyside, & Woodside","cuisine":"Latin American","boro":"Queens","rating":null,"price":null,"fsq_id":null},{"name":"Parador Caleno","lat":40.741243,"lon":-73.919847,"puma":"3604402","puma_name":"Long Island City, Sunnyside, & Woodside","cuisine":"Latin American","boro":"Queens","rating":null,"price":null,"fsq_id":null},{"name":"Paraiso Azteca","lat":40.747279,"lon":-73.862453,"puma":"3604404","puma_name":"Elmhurst & Corona","cuisine":"Latin American","boro":"Queens","rating":null,"price":null,"fsq_id":null},{"name":"Paraiso Colombiano","lat":40.74372,"lon":-73.856278,"puma":"3604404","puma_name":"Elmhurst & Corona","cuisine":"Latin American","boro":"Queens","rating":null,"price":null,"fsq_id":null},{"name":"Parceros Bakery & Coffee Shop","lat":40.723115,"lon":-73.868102,"puma":"3604405","puma_name":"Ridgewood, Maspeth, & Middle Village","cuisine":"Latin American","boro":"Queens","rating":null,"price":null,"fsq_id":null},{"name":"Parche Latino","lat":40.735325,"lon":-73.895498,"puma":"3604402","puma_name":"Long Island City, Sunnyside, & Woodside","cuisine":"Latin American","boro":"Queens","rating":null,"price":null,"fsq_id":null},{"name":"Patacon Pisao","lat":40.735289,"lon":-73.881497,"puma":"3604404","puma_name":"Elmhurst & Corona","cuisine":"Latin American","boro":"Queens","rating":null,"price":null,"fsq_id":null},{"name":"Pate Palo","lat":40.866428,"lon":-73.928333,"puma":"3604112","puma_name":"Washington Heights & Inwood","cuisine":"Latin American","boro":"Manhattan","rating":null,"price":null,"fsq_id":null},{"name":"Picanteria El Austro","lat":40.749514,"lon":-73.883334,"puma":"3604403","puma_name":"Jackson Heights & East Elmhurst","cuisine":"Latin American","boro":"Queens","rating":null,"price":null,"fsq_id":null},{"name":"Pimpollo","lat":40.757709,"lon":-73.87413,"puma":"3604403","puma_name":"Jackson Heights & East Elmhurst","cuisine":"Latin American","boro":"Queens","rating":null,"price":null,"fsq_id":null},{"name":"Pio Pio One","lat":40.725958,"lon":-73.870113,"puma":"3604405","puma_name":"Ridgewood, Maspeth, & Middle Village","cuisine":"Latin American","boro":"Queens","rating":null,"price":null,"fsq_id":null},{"name":"Pio Pio To Go","lat":40.755786,"lon":-73.883237,"puma":"3604403","puma_name":"Jackson Heights & East Elmhurst","cuisine":"Latin American","boro":"Queens","rating":null,"price":null,"fsq_id":null},{"name":"Pio-Pio","lat":40.755756,"lon":-73.883352,"puma":"3604403","puma_name":"Jackson Heights & East Elmhurst","cuisine":"Latin American","boro":"Queens","rating":null,"price":null,"fsq_id":null},{"name":"Poblado Gastrobar","lat":40.74909,"lon":-73.887023,"puma":"3604403","puma_name":"Jackson Heights & East Elmhurst","cuisine":"Latin American","boro":"Queens","rating":null,"price":null,"fsq_id":null},{"name":"Pollos A La Brasa Mario","lat":40.749846,"lon":-73.883225,"puma":"3604403","puma_name":"Jackson Heights & East Elmhurst","cuisine":"Latin American","boro":"Queens","rating":null,"price":null,"fsq_id":null},{"name":"Pollos A La Brasa Mario","lat":40.747551,"lon":-73.884716,"puma":"3604403","puma_name":"Jackson Heights & East Elmhurst","cuisine":"Latin American","boro":"Queens","rating":null,"price":null,"fsq_id":null},{"name":"Pollos A La Brasa Mario","lat":40.723964,"lon":-73.868912,"puma":"3604405","puma_name":"Ridgewood, Maspeth, & Middle Village","cuisine":"Latin American","boro":"Queens","rating":null,"price":null,"fsq_id":null},{"name":"Pollos Mario","lat":40.748053,"lon":-73.879959,"puma":"3604403","puma_name":"Jackson Heights & East Elmhurst","cuisine":"Latin American","boro":"Queens","rating":null,"price":null,"fsq_id":null},{"name":"Pollos Mario","lat":40.744616,"lon":-73.902564,"puma":"3604402","puma_name":"Long Island City, Sunnyside, & Woodside","cuisine":"Latin American","boro":"Queens","rating":null,"price":null,"fsq_id":null},{"name":"Pollos Pepa","lat":40.761946,"lon":-73.869068,"puma":"3604403","puma_name":"Jackson Heights & East Elmhurst","cuisine":"Latin American","boro":"Queens","rating":null,"price":null,"fsq_id":null},{"name":"Post Billiards Cafe","lat":40.864912,"lon":-73.919058,"puma":"3604112","puma_name":"Washington Heights & Inwood","cuisine":"Latin American","boro":"Manhattan","rating":null,"price":null,"fsq_id":null},{"name":"Praga Tapas Bar","lat":40.749927,"lon":-73.899091,"puma":"3604402","puma_name":"Long Island City, Sunnyside, & Woodside","cuisine":"Latin American","boro":"Queens","rating":null,"price":null,"fsq_id":null},{"name":"Prima Donna","lat":40.748469,"lon":-73.875833,"puma":"3604404","puma_name":"Elmhurst & Corona","cuisine":"Latin American","boro":"Queens","rating":null,"price":null,"fsq_id":null},{"name":"Prontito","lat":40.747585,"lon":-73.880595,"puma":"3604404","puma_name":"Elmhurst & Corona","cuisine":"Latin American","boro":"Queens","rating":null,"price":null,"fsq_id":null},{"name":"Puerto Plata Restaurant","lat":40.681512,"lon":-73.880079,"puma":"3604305","puma_name":"East New York & Cypress Hills","cuisine":"Latin American","boro":"Brooklyn","rating":null,"price":null,"fsq_id":null},{"name":"Punto De Sabor","lat":40.850723,"lon":-73.932688,"puma":"3604112","puma_name":"Washington Heights & Inwood","cuisine":"Latin American","boro":"Manhattan","rating":null,"price":null,"fsq_id":null},{"name":"Punto Ecuatoriano Bakery","lat":40.748124,"lon":-73.879136,"puma":"3604404","puma_name":"Elmhurst & Corona","cuisine":"Latin American","boro":"Queens","rating":null,"price":null,"fsq_id":null},{"name":"Pupuseria Izalco","lat":40.745962,"lon":-73.899873,"puma":"3604402","puma_name":"Long Island City, Sunnyside, & Woodside","cuisine":"Latin American","boro":"Queens","rating":null,"price":null,"fsq_id":null},{"name":"Pupuseria Ridgewood","lat":40.701566,"lon":-73.894855,"puma":"3604405","puma_name":"Ridgewood, Maspeth, & Middle Village","cuisine":"Latin American","boro":"Queens","rating":null,"price":null,"fsq_id":null},{"name":"Q'Rico Latin Restaurant","lat":40.736532,"lon":-73.865766,"puma":"3604404","puma_name":"Elmhurst & Corona","cuisine":"Latin American","boro":"Queens","rating":null,"price":null,"fsq_id":null},{"name":"Queens Coffee Shop","lat":40.750861,"lon":-73.858284,"puma":"3604403","puma_name":"Jackson Heights & East Elmhurst","cuisine":"Latin American","boro":"Queens","rating":null,"price":null,"fsq_id":null},{"name":"Quitenita Bakery Restaurant","lat":40.752076,"lon":-73.8689,"puma":"3604403","puma_name":"Jackson Heights & East Elmhurst","cuisine":"Latin American","boro":"Queens","rating":null,"price":null,"fsq_id":null},{"name":"R40","lat":40.744997,"lon":-73.953351,"puma":"3604402","puma_name":"Long Island City, Sunnyside, & Woodside","cuisine":"Latin American","boro":"Queens","rating":null,"price":null,"fsq_id":null},{"name":"Raices Colombianas","lat":40.75014,"lon":-73.880439,"puma":"3604403","puma_name":"Jackson Heights & East Elmhurst","cuisine":"Latin American","boro":"Queens","rating":null,"price":null,"fsq_id":null},{"name":"Raices Colombianas","lat":40.722899,"lon":-73.90151,"puma":"3604405","puma_name":"Ridgewood, Maspeth, & Middle Village","cuisine":"Latin American","boro":"Queens","rating":null,"price":null,"fsq_id":null},{"name":"Republica","lat":40.863707,"lon":-73.926113,"puma":"3604112","puma_name":"Washington Heights & Inwood","cuisine":"Latin American","boro":"Manhattan","rating":null,"price":null,"fsq_id":null},{"name":"Restaurante Ecuatoriano Genesis","lat":40.865547,"lon":-73.919852,"puma":"3604112","puma_name":"Washington Heights & Inwood","cuisine":"Latin American","boro":"Manhattan","rating":null,"price":null,"fsq_id":null},{"name":"Ricas Pupusas & Mas","lat":40.740051,"lon":-73.918358,"puma":"3604402","puma_name":"Long Island City, Sunnyside, & Woodside","cuisine":"Latin American","boro":"Queens","rating":null,"price":null,"fsq_id":null},{"name":"Rico Chimi Brooklyn","lat":40.6775,"lon":-73.886251,"puma":"3604305","puma_name":"East New York & Cypress Hills","cuisine":"Latin American","boro":"Brooklyn","rating":null,"price":null,"fsq_id":null},{"name":"Rico Pollo #1","lat":40.699988,"lon":-73.907397,"puma":"3604405","puma_name":"Ridgewood, Maspeth, & Middle Village","cuisine":"Latin American","boro":"Queens","rating":null,"price":null,"fsq_id":null},{"name":"Riko","lat":40.747251,"lon":-73.887438,"puma":"3604404","puma_name":"Elmhurst & Corona","cuisine":"Latin American","boro":"Queens","rating":null,"price":null,"fsq_id":null},{"name":"Rincon Latino","lat":40.750472,"lon":-73.86302,"puma":"3604403","puma_name":"Jackson Heights & East Elmhurst","cuisine":"Latin American","boro":"Queens","rating":null,"price":null,"fsq_id":null},{"name":"Rincon Melania","lat":40.74443,"lon":-73.92962,"puma":"3604402","puma_name":"Long Island City, Sunnyside, & Woodside","cuisine":"Latin American","boro":"Queens","rating":null,"price":null,"fsq_id":null},{"name":"Rosas Bakery & Restaurant","lat":40.700133,"lon":-73.90321,"puma":"3604405","puma_name":"Ridgewood, Maspeth, & Middle Village","cuisine":"Latin American","boro":"Queens","rating":null,"price":null,"fsq_id":null},{"name":"Rudy'S Deli","lat":40.72998,"lon":-73.91911,"puma":"3604402","puma_name":"Long Island City, Sunnyside, & Woodside","cuisine":"Latin American","boro":"Queens","rating":null,"price":null,"fsq_id":null},{"name":"Rumba Y Sazon","lat":40.701536,"lon":-73.894844,"puma":"3604405","puma_name":"Ridgewood, Maspeth, & Middle Village","cuisine":"Latin American","boro":"Queens","rating":null,"price":null,"fsq_id":null},{"name":"Sabor Ecuatoriano Bakery","lat":40.746465,"lon":-73.883737,"puma":"3604404","puma_name":"Elmhurst & Corona","cuisine":"Latin American","boro":"Queens","rating":null,"price":null,"fsq_id":null},{"name":"Sabor Hispano","lat":40.752825,"lon":-73.86421,"puma":"3604403","puma_name":"Jackson Heights & East Elmhurst","cuisine":"Latin American","boro":"Queens","rating":null,"price":null,"fsq_id":null},{"name":"Sabor Latino","lat":40.748602,"lon":-73.869654,"puma":"3604404","puma_name":"Elmhurst & Corona","cuisine":"Latin American","boro":"Queens","rating":null,"price":null,"fsq_id":null},{"name":"Sabor Tropical","lat":40.864534,"lon":-73.923368,"puma":"3604112","puma_name":"Washington Heights & Inwood","cuisine":"Latin American","boro":"Manhattan","rating":null,"price":null,"fsq_id":null},{"name":"Sabor Y Pasion En La Cocina","lat":40.853409,"lon":-73.930722,"puma":"3604112","puma_name":"Washington Heights & Inwood","cuisine":"Latin American","boro":"Manhattan","rating":null,"price":null,"fsq_id":null},{"name":"Sal Y Pimienta","lat":40.747542,"lon":-73.884648,"puma":"3604404","puma_name":"Elmhurst & Corona","cuisine":"Latin American","boro":"Queens","rating":null,"price":null,"fsq_id":null},{"name":"Salud Bar & Grill","lat":40.684448,"lon":-73.909261,"puma":"3604304","puma_name":"Bushwick","cuisine":"Latin American","boro":"Brooklyn","rating":null,"price":null,"fsq_id":null},{"name":"Salvaje Social Club","lat":40.755288,"lon":-73.887951,"puma":"3604403","puma_name":"Jackson Heights & East Elmhurst","cuisine":"Latin American","boro":"Queens","rating":null,"price":null,"fsq_id":null},{"name":"Santa Maria Bar","lat":40.74639,"lon":-73.899577,"puma":"3604402","puma_name":"Long Island City, Sunnyside, & Woodside","cuisine":"Latin American","boro":"Queens","rating":null,"price":null,"fsq_id":null},{"name":"Santa Salsa","lat":40.705513,"lon":-73.922714,"puma":"3604304","puma_name":"Bushwick","cuisine":"Latin American","boro":"Brooklyn","rating":null,"price":null,"fsq_id":null},{"name":"Santo Domingo Restaurant","lat":40.667935,"lon":-73.879033,"puma":"3604305","puma_name":"East New York & Cypress Hills","cuisine":"Latin American","boro":"Brooklyn","rating":null,"price":null,"fsq_id":null},{"name":"Satori Burgers","lat":40.760136,"lon":-73.87745,"puma":"3604403","puma_name":"Jackson Heights & East Elmhurst","cuisine":"Latin American","boro":"Queens","rating":null,"price":null,"fsq_id":null},{"name":"Sazon Colombia","lat":40.748317,"lon":-73.877291,"puma":"3604404","puma_name":"Elmhurst & Corona","cuisine":"Latin American","boro":"Queens","rating":null,"price":null,"fsq_id":null},{"name":"Sazon La Comuchita","lat":40.749881,"lon":-73.862465,"puma":"3604404","puma_name":"Elmhurst & Corona","cuisine":"Latin American","boro":"Queens","rating":null,"price":null,"fsq_id":null},{"name":"Sazon'S Nunez","lat":40.704364,"lon":-73.919343,"puma":"3604304","puma_name":"Bushwick","cuisine":"Latin American","boro":"Brooklyn","rating":null,"price":null,"fsq_id":null},{"name":"Scorpion","lat":40.746952,"lon":-73.890254,"puma":"3604404","puma_name":"Elmhurst & Corona","cuisine":"Latin American","boro":"Queens","rating":null,"price":null,"fsq_id":null},{"name":"Scorpion Bar","lat":40.746337,"lon":-73.896137,"puma":"3604402","puma_name":"Long Island City, Sunnyside, & Woodside","cuisine":"Latin American","boro":"Queens","rating":null,"price":null,"fsq_id":null},{"name":"Seba Seba","lat":40.749474,"lon":-73.88677,"puma":"3604403","puma_name":"Jackson Heights & East Elmhurst","cuisine":"Latin American","boro":"Queens","rating":null,"price":null,"fsq_id":null},{"name":"Seba- Seba Bakery","lat":40.755675,"lon":-73.884287,"puma":"3604403","puma_name":"Jackson Heights & East Elmhurst","cuisine":"Latin American","boro":"Queens","rating":null,"price":null,"fsq_id":null},{"name":"Selva","lat":40.706017,"lon":-73.921062,"puma":"3604304","puma_name":"Bushwick","cuisine":"Latin American","boro":"Brooklyn","rating":null,"price":null,"fsq_id":null},{"name":"Seneca Fiesta","lat":40.704046,"lon":-73.909775,"puma":"3604405","puma_name":"Ridgewood, Maspeth, & Middle Village","cuisine":"Latin American","boro":"Queens","rating":null,"price":null,"fsq_id":null},{"name":"Serie 56 Sport Bar","lat":40.694079,"lon":-73.850951,"puma":"3604409","puma_name":"Kew Gardens, Richmond Hill, & Woodhaven","cuisine":"Latin American","boro":"Queens","rating":null,"price":null,"fsq_id":null},{"name":"Sol Boulevard","lat":40.756069,"lon":-73.880543,"puma":"3604403","puma_name":"Jackson Heights & East Elmhurst","cuisine":"Latin American","boro":"Queens","rating":null,"price":null,"fsq_id":null},{"name":"Sol De Quito","lat":40.701723,"lon":-73.919127,"puma":"3604304","puma_name":"Bushwick","cuisine":"Latin American","boro":"Brooklyn","rating":null,"price":null,"fsq_id":null},{"name":"Son De Cali Bakery","lat":40.697364,"lon":-73.907202,"puma":"3604405","puma_name":"Ridgewood, Maspeth, & Middle Village","cuisine":"Latin American","boro":"Queens","rating":null,"price":null,"fsq_id":null},{"name":"Star Delicious","lat":40.700453,"lon":-73.912734,"puma":"3604304","puma_name":"Bushwick","cuisine":"Latin American","boro":"Brooklyn","rating":null,"price":null,"fsq_id":null},{"name":"Stop809","lat":40.865492,"lon":-73.919791,"puma":"3604112","puma_name":"Washington Heights & Inwood","cuisine":"Latin American","boro":"Manhattan","rating":null,"price":null,"fsq_id":null},{"name":"Super Pollo","lat":40.702841,"lon":-73.902192,"puma":"3604405","puma_name":"Ridgewood, Maspeth, & Middle Village","cuisine":"Latin American","boro":"Queens","rating":null,"price":null,"fsq_id":null},{"name":"Sushi Mambo","lat":40.860812,"lon":-73.920046,"puma":"3604112","puma_name":"Washington Heights & Inwood","cuisine":"Latin American","boro":"Manhattan","rating":null,"price":null,"fsq_id":null},{"name":"Sweet Anaelle","lat":40.699143,"lon":-73.932077,"puma":"3604304","puma_name":"Bushwick","cuisine":"Latin American","boro":"Brooklyn","rating":null,"price":null,"fsq_id":null},{"name":"Tabare Restaurant","lat":40.703828,"lon":-73.930972,"puma":"3604304","puma_name":"Bushwick","cuisine":"Latin American","boro":"Brooklyn","rating":null,"price":null,"fsq_id":null},{"name":"Tabu","lat":40.865821,"lon":-73.9276,"puma":"3604112","puma_name":"Washington Heights & Inwood","cuisine":"Latin American","boro":"Manhattan","rating":null,"price":null,"fsq_id":null},{"name":"Tajadas Bakery Restaurant","lat":40.694658,"lon":-73.848361,"puma":"3604409","puma_name":"Kew Gardens, Richmond Hill, & Woodhaven","cuisine":"Latin American","boro":"Queens","rating":null,"price":null,"fsq_id":null},{"name":"Taller Cocina","lat":40.861339,"lon":-73.91942,"puma":"3604112","puma_name":"Washington Heights & Inwood","cuisine":"Latin American","boro":"Manhattan","rating":null,"price":null,"fsq_id":null},{"name":"Taqueria El Gallo Giro","lat":40.745959,"lon":-73.899888,"puma":"3604402","puma_name":"Long Island City, Sunnyside, & Woodside","cuisine":"Latin American","boro":"Queens","rating":null,"price":null,"fsq_id":null},{"name":"Taqueria Y Paleteria","lat":40.855883,"lon":-73.928912,"puma":"3604112","puma_name":"Washington Heights & Inwood","cuisine":"Latin American","boro":"Manhattan","rating":null,"price":null,"fsq_id":null},{"name":"Tauros Bar And Restaurant","lat":40.695612,"lon":-73.839364,"puma":"3604409","puma_name":"Kew Gardens, Richmond Hill, & Woodhaven","cuisine":"Latin American","boro":"Queens","rating":null,"price":null,"fsq_id":null},{"name":"Td Big J Deli Corp.","lat":40.734112,"lon":-73.937775,"puma":"3604402","puma_name":"Long Island City, Sunnyside, & Woodside","cuisine":"Latin American","boro":"Queens","rating":null,"price":null,"fsq_id":null},{"name":"Terravita Bar & Kitchen","lat":40.848107,"lon":-73.937809,"puma":"3604112","puma_name":"Washington Heights & Inwood","cuisine":"Latin American","boro":"Manhattan","rating":null,"price":null,"fsq_id":null},{"name":"Terraza 7","lat":40.747322,"lon":-73.881793,"puma":"3604404","puma_name":"Elmhurst & Corona","cuisine":"Latin American","boro":"Queens","rating":null,"price":null,"fsq_id":null},{"name":"The Alcove","lat":40.745919,"lon":-73.915283,"puma":"3604402","puma_name":"Long Island City, Sunnyside, & Woodside","cuisine":"Latin American","boro":"Queens","rating":null,"price":null,"fsq_id":null},{"name":"The Blue Lobster","lat":40.851455,"lon":-73.932152,"puma":"3604112","puma_name":"Washington Heights & Inwood","cuisine":"Latin American","boro":"Manhattan","rating":null,"price":null,"fsq_id":null},{"name":"The Kiss Me Bar","lat":40.746105,"lon":-73.868226,"puma":"3604404","puma_name":"Elmhurst & Corona","cuisine":"Latin American","boro":"Queens","rating":null,"price":null,"fsq_id":null},{"name":"The Lover'S Bar & Grill","lat":40.749745,"lon":-73.863797,"puma":"3604404","puma_name":"Elmhurst & Corona","cuisine":"Latin American","boro":"Queens","rating":null,"price":null,"fsq_id":null},{"name":"Tico'S Cafeteria","lat":40.70033,"lon":-73.925061,"puma":"3604304","puma_name":"Bushwick","cuisine":"Latin American","boro":"Brooklyn","rating":null,"price":null,"fsq_id":null},{"name":"Tiny Tapas & Bites","lat":40.868953,"lon":-73.915831,"puma":"3604112","puma_name":"Washington Heights & Inwood","cuisine":"Latin American","boro":"Manhattan","rating":null,"price":null,"fsq_id":null},{"name":"Tipico Dominicano","lat":40.75071,"lon":-73.8629,"puma":"3604403","puma_name":"Jackson Heights & East Elmhurst","cuisine":"Latin American","boro":"Queens","rating":null,"price":null,"fsq_id":null},{"name":"Tipico56","lat":40.864882,"lon":-73.922434,"puma":"3604112","puma_name":"Washington Heights & Inwood","cuisine":"Latin American","boro":"Manhattan","rating":null,"price":null,"fsq_id":null},{"name":"Titahs Deli Grocery","lat":40.757767,"lon":-73.862593,"puma":"3604403","puma_name":"Jackson Heights & East Elmhurst","cuisine":"Latin American","boro":"Queens","rating":null,"price":null,"fsq_id":null},{"name":"Tropical Restaurant","lat":40.746158,"lon":-73.897834,"puma":"3604402","puma_name":"Long Island City, Sunnyside, & Woodside","cuisine":"Latin American","boro":"Queens","rating":null,"price":null,"fsq_id":null},{"name":"Tropical Restaurant","lat":40.737582,"lon":-73.929782,"puma":"3604402","puma_name":"Long Island City, Sunnyside, & Woodside","cuisine":"Latin American","boro":"Queens","rating":null,"price":null,"fsq_id":null},{"name":"True Colors","lat":40.747368,"lon":-73.886485,"puma":"3604403","puma_name":"Jackson Heights & East Elmhurst","cuisine":"Latin American","boro":"Queens","rating":null,"price":null,"fsq_id":null},{"name":"Tu Sabor Latino","lat":40.837314,"lon":-73.942506,"puma":"3604112","puma_name":"Washington Heights & Inwood","cuisine":"Latin American","boro":"Manhattan","rating":null,"price":null,"fsq_id":null},{"name":"Tu Sonrisa","lat":40.842762,"lon":-73.936708,"puma":"3604112","puma_name":"Washington Heights & Inwood","cuisine":"Latin American","boro":"Manhattan","rating":null,"price":null,"fsq_id":null},{"name":"Utopia Kitchen & Lounge","lat":40.865972,"lon":-73.91953,"puma":"3604112","puma_name":"Washington Heights & Inwood","cuisine":"Latin American","boro":"Manhattan","rating":null,"price":null,"fsq_id":null},{"name":"Valdes House Bar Restaurant","lat":40.760133,"lon":-73.877475,"puma":"3604403","puma_name":"Jackson Heights & East Elmhurst","cuisine":"Latin American","boro":"Queens","rating":null,"price":null,"fsq_id":null},