{"code":"IRQ","nation":"Iraq","flag":"\ud83c\uddee\ud83c\uddf6","confederation":"AFC","host":false,"b05006":["B05006_083E"],"cuisines":["Middle Eastern"],"notes":"","nyc_total":631,"choropleth":{"3604104":{"count":47,"moe":57,"reliab":"low","share_fb":0.0014},"3604107":{"count":56,"moe":70,"reliab":"low","share_fb":0.0011},"3604108":{"count":17,"moe":28,"reliab":"low","share_fb":0.0003},"3604109":{"count":30,"moe":43,"reliab":"low","share_fb":0.0008},"3604121":{"count":16,"moe":26,"reliab":"low","share_fb":0.0004},"3604165":{"count":70,"moe":109,"reliab":"low","share_fb":0.0014},"3604207":{"count":63,"moe":81,"reliab":"low","share_fb":0.0011},"3604208":{"count":64,"moe":71,"reliab":"low","share_fb":0.0021},"3604212":{"count":28,"moe":27,"reliab":"low","share_fb":0.0005},"3604306":{"count":9,"moe":15,"reliab":"low","share_fb":0.0004},"3604308":{"count":9,"moe":14,"reliab":"low","share_fb":0.0003},"3604310":{"count":102,"moe":101,"reliab":"low","share_fb":0.0022},"3604312":{"count":8,"moe":13,"reliab":"low","share_fb":0.0001},"3604313":{"count":16,"moe":22,"reliab":"low","share_fb":0.0003},"3604315":{"count":5,"moe":7,"reliab":"low","share_fb":0.0001},"3604404":{"count":14,"moe":21,"reliab":"low","share_fb":0.0001},"3604406":{"count":10,"moe":20,"reliab":"low","share_fb":0.0002},"3604408":{"count":34,"moe":44,"reliab":"low","share_fb":0.0005},"3604409":{"count":15,"moe":21,"reliab":"low","share_fb":0.0002},"3604501":{"count":4,"moe":8,"reliab":"low","share_fb":0.0001},"3604503":{"count":14,"moe":20,"reliab":"low","share_fb":0.0004}},"top_pumas":["3604310","3604165","3604208","3604207","3604107","3604104"],"top_puma_names":["Bay Ridge & Dyker Heights","Midtown, East Midtown, & Flatiron","Riverdale, Kingsbridge, & Marble Hill","Fordham, Bedford Park, & Norwood","Upper West Side","Chelsea & Hell's Kitchen"],"venues":[{"name":"% Arabica","lat":40.761593,"lon":-73.976684,"puma":"3604165","puma_name":"Midtown, East Midtown, & Flatiron","cuisine":"Middle Eastern","boro":"Manhattan","rating":null,"price":null,"fsq_id":null},{"name":"Al Aqsa Bakery & Restaurant","lat":40.633226,"lon":-74.021098,"puma":"3604310","puma_name":"Bay Ridge & Dyker Heights","cuisine":"Middle Eastern","boro":"Brooklyn","rating":null,"price":null,"fsq_id":null},{"name":"Al Reef Bakery & Restaurant","lat":40.626372,"lon":-74.023895,"puma":"3604310","puma_name":"Bay Ridge & Dyker Heights","cuisine":"Middle Eastern","boro":"Brooklyn","rating":null,"price":null,"fsq_id":null},{"name":"Al Sham Restaurant","lat":40.627852,"lon":-74.023294,"puma":"3604310","puma_name":"Bay Ridge & Dyker Heights","cuisine":"Middle Eastern","boro":"Brooklyn","rating":null,"price":null,"fsq_id":null},{"name":"Alshibani Restaurant","lat":40.632651,"lon":-74.027313,"puma":"3604310","puma_name":"Bay Ridge & Dyker Heights","cuisine":"Middle Eastern","boro":"Brooklyn","rating":null,"price":null,"fsq_id":null},{"name":"Au Za'Atar","lat":40.758878,"lon":-73.962517,"puma":"3604165","puma_name":"Midtown, East Midtown, & Flatiron","cuisine":"Middle Eastern","boro":"Manhattan","rating":null,"price":null,"fsq_id":null},{"name":"Ayat Meast","lat":40.624188,"lon":-74.03075,"puma":"3604310","puma_name":"Bay Ridge & Dyker Heights","cuisine":"Middle Eastern","boro":"Brooklyn","rating":null,"price":null,"fsq_id":null},{"name":"Balade Eastern Mediterranean","lat":40.752433,"lon":-73.98818,"puma":"3604165","puma_name":"Midtown, East Midtown, & Flatiron","cuisine":"Middle Eastern","boro":"Manhattan","rating":null,"price":null,"fsq_id":null},{"name":"Basta Middle Eastern Grill","lat":40.761925,"lon":-73.991062,"puma":"3604104","puma_name":"Chelsea & Hell's Kitchen","cuisine":"Middle Eastern","boro":"Manhattan","rating":null,"price":null,"fsq_id":null},{"name":"Beit Jeddo","lat":40.633226,"lon":-74.021098,"puma":"3604310","puma_name":"Bay Ridge & Dyker Heights","cuisine":"Middle Eastern","boro":"Brooklyn","rating":null,"price":null,"fsq_id":null},{"name":"Brooklyn Kebab House","lat":40.633935,"lon":-74.020803,"puma":"3604310","puma_name":"Bay Ridge & Dyker Heights","cuisine":"Middle Eastern","boro":"Brooklyn","rating":null,"price":null,"fsq_id":null},{"name":"Cafe Zaffri","lat":40.737115,"lon":-73.99218,"puma":"3604165","puma_name":"Midtown, East Midtown, & Flatiron","cuisine":"Middle Eastern","boro":"Manhattan","rating":null,"price":null,"fsq_id":null},{"name":"Cajun Halal Platters","lat":40.799378,"lon":-73.968411,"puma":"3604107","puma_name":"Upper West Side","cuisine":"Middle Eastern","boro":"Manhattan","rating":null,"price":null,"fsq_id":null},{"name":"Chama Mama","lat":40.73793,"lon":-73.998196,"puma":"3604104","puma_name":"Chelsea & Hell's Kitchen","cuisine":"Middle Eastern","boro":"Manhattan","rating":null,"price":null,"fsq_id":null},{"name":"Falafel Palace","lat":40.62831,"lon":-74.023867,"puma":"3604310","puma_name":"Bay Ridge & Dyker Heights","cuisine":"Middle Eastern","boro":"Brooklyn","rating":null,"price":null,"fsq_id":null},{"name":"Fire Kabob","lat":40.620885,"lon":-74.025204,"puma":"3604310","puma_name":"Bay Ridge & Dyker Heights","cuisine":"Middle Eastern","boro":"Brooklyn","rating":null,"price":null,"fsq_id":null},{"name":"Gyro King","lat":40.632009,"lon":-74.027576,"puma":"3604310","puma_name":"Bay Ridge & Dyker Heights","cuisine":"Middle Eastern","boro":"Brooklyn","rating":null,"price":null,"fsq_id":null},{"name":"Gyro King","lat":40.756381,"lon":-73.994109,"puma":"3604104","puma_name":"Chelsea & Hell's Kitchen","cuisine":"Middle Eastern","boro":"Manhattan","rating":null,"price":null,"fsq_id":null},{"name":"Halal Bitez","lat":40.801333,"lon":-73.960077,"puma":"3604107","puma_name":"Upper West Side","cuisine":"Middle Eastern","boro":"Manhattan","rating":null,"price":null,"fsq_id":null},{"name":"Halal Munchies","lat":40.626301,"lon":-74.023928,"puma":"3604310","puma_name":"Bay Ridge & Dyker Heights","cuisine":"Middle Eastern","boro":"Brooklyn","rating":null,"price":null,"fsq_id":null},{"name":"Halal Munchies","lat":40.881785,"lon":-73.879778,"puma":"3604207","puma_name":"Fordham, Bedford Park, & Norwood","cuisine":"Middle Eastern","boro":"Bronx","rating":null,"price":null,"fsq_id":null},{"name":"Haveli Cafe & Hookah Lounge","lat":40.635315,"lon":-74.020238,"puma":"3604310","puma_name":"Bay Ridge & Dyker Heights","cuisine":"Middle Eastern","boro":"Brooklyn","rating":null,"price":null,"fsq_id":null},{"name":"Hinds Hall","lat":40.80055,"lon":-73.965614,"puma":"3604107","puma_name":"Upper West Side","cuisine":"Middle Eastern","boro":"Manhattan","rating":null,"price":null,"fsq_id":null},{"name":"Hokey Poke-Chick Shop","lat":40.755499,"lon":-73.97098,"puma":"3604165","puma_name":"Midtown, East Midtown, & Flatiron","cuisine":"Middle Eastern","boro":"Manhattan","rating":null,"price":null,"fsq_id":null},{"name":"Hummus Place","lat":40.780143,"lon":-73.980498,"puma":"3604107","puma_name":"Upper West Side","cuisine":"Middle Eastern","boro":"Manhattan","rating":null,"price":null,"fsq_id":null},{"name":"Karam Restaurant","lat":40.623349,"lon":-74.028112,"puma":"3604310","puma_name":"Bay Ridge & Dyker Heights","cuisine":"Middle Eastern","boro":"Brooklyn","rating":null,"price":null,"fsq_id":null},{"name":"Karizma Lounge","lat":40.755998,"lon":-73.969276,"puma":"3604165","puma_name":"Midtown, East Midtown, & Flatiron","cuisine":"Middle Eastern","boro":"Manhattan","rating":null,"price":null,"fsq_id":null},{"name":"Lailas","lat":40.624007,"lon":-74.030847,"puma":"3604310","puma_name":"Bay Ridge & Dyker Heights","cuisine":"Middle Eastern","boro":"Brooklyn","rating":null,"price":null,"fsq_id":null},{"name":"Lava Shawarma","lat":40.62291,"lon":-74.028865,"puma":"3604310","puma_name":"Bay Ridge & Dyker Heights","cuisine":"Middle Eastern","boro":"Brooklyn","rating":null,"price":null,"fsq_id":null},{"name":"Lava Shawarma","lat":40.741839,"lon":-73.9903,"puma":"3604165","puma_name":"Midtown, East Midtown, & Flatiron","cuisine":"Middle Eastern","boro":"Manhattan","rating":null,"price":null,"fsq_id":null},{"name":"Laza Desserts","lat":40.634599,"lon":-74.020558,"puma":"3604310","puma_name":"Bay Ridge & Dyker Heights","cuisine":"Middle Eastern","boro":"Brooklyn","rating":null,"price":null,"fsq_id":null},{"name":"Le Sajj Restaurant","lat":40.624096,"lon":-74.024827,"puma":"3604310","puma_name":"Bay Ridge & Dyker Heights","cuisine":"Middle Eastern","boro":"Brooklyn","rating":null,"price":null,"fsq_id":null},{"name":"Mamoun'S Falafel","lat":40.785461,"lon":-73.972931,"puma":"3604107","puma_name":"Upper West Side","cuisine":"Middle Eastern","boro":"Manhattan","rating":null,"price":null,"fsq_id":null},{"name":"Maqluba","lat":40.634287,"lon":-74.026625,"puma":"3604310","puma_name":"Bay Ridge & Dyker Heights","cuisine":"Middle Eastern","boro":"Brooklyn","rating":null,"price":null,"fsq_id":null},{"name":"Matari Coffee Co","lat":40.633023,"lon":-74.021177,"puma":"3604310","puma_name":"Bay Ridge & Dyker Heights","cuisine":"Middle Eastern","boro":"Brooklyn","rating":null,"price":null,"fsq_id":null},{"name":"Miznon","lat":40.758458,"lon":-73.970914,"puma":"3604165","puma_name":"Midtown, East Midtown, & Flatiron","cuisine":"Middle Eastern","boro":"Manhattan","rating":null,"price":null,"fsq_id":null},{"name":"Miznon","lat":40.741869,"lon":-74.004713,"puma":"3604104","puma_name":"Chelsea & Hell's Kitchen","cuisine":"Middle Eastern","boro":"Manhattan","rating":null,"price":null,"fsq_id":null},{"name":"Miznon","lat":40.753038,"lon":-74.000282,"puma":"3604104","puma_name":"Chelsea & Hell's Kitchen","cuisine":"Middle Eastern","boro":"Manhattan","rating":null,"price":null,"fsq_id":null},{"name":"Nablus Sweets","lat":40.634,"lon":-74.020799,"puma":"3604310","puma_name":"Bay Ridge & Dyker Heights","cuisine":"Middle Eastern","boro":"Brooklyn","rating":null,"price":null,"fsq_id":null},{"name":"Naya","lat":40.758747,"lon":-73.978692,"puma":"3604165","puma_name":"Midtown, East Midtown, & Flatiron","cuisine":"Middle Eastern","boro":"Manhattan","rating":null,"price":null,"fsq_id":null},{"name":"Naya","lat":40.748783,"lon":-73.992244,"puma":"3604165","puma_name":"Midtown, East Midtown, & Flatiron","cuisine":"Middle Eastern","boro":"Manhattan","rating":null,"price":null,"fsq_id":null},{"name":"Naya","lat":40.739999,"lon":-73.986507,"puma":"3604165","puma_name":"Midtown, East Midtown, & Flatiron","cuisine":"Middle Eastern","boro":"Manhattan","rating":null,"price":null,"fsq_id":null},{"name":"Naya","lat":40.75318,"lon":-73.987208,"puma":"3604165","puma_name":"Midtown, East Midtown, & Flatiron","cuisine":"Middle Eastern","boro":"Manhattan","rating":null,"price":null,"fsq_id":null},{"name":"Naya","lat":40.751731,"lon":-73.973757,"puma":"3604165","puma_name":"Midtown, East Midtown, & Flatiron","cuisine":"Middle Eastern","boro":"Manhattan","rating":null,"price":null,"fsq_id":null},{"name":"Naya","lat":40.743408,"lon":-73.989094,"puma":"3604165","puma_name":"Midtown, East Midtown, & Flatiron","cuisine":"Middle Eastern","boro":"Manhattan","rating":null,"price":null,"fsq_id":null},{"name":"Naya","lat":40.758881,"lon":-73.974855,"puma":"3604165","puma_name":"Midtown, East Midtown, & Flatiron","cuisine":"Middle Eastern","boro":"Manhattan","rating":null,"price":null,"fsq_id":null},{"name":"Naya","lat":40.751749,"lon":-73.980037,"puma":"3604165","puma_name":"Midtown, East Midtown, & Flatiron","cuisine":"Middle Eastern","boro":"Manhattan","rating":null,"price":null,"fsq_id":null},{"name":"Naya","lat":40.765009,"lon":-73.982896,"puma":"3604165","puma_name":"Midtown, East Midtown, & Flatiron","cuisine":"Middle Eastern","boro":"Manhattan","rating":null,"price":null,"fsq_id":null},{"name":"Naya","lat":40.760746,"lon":-73.979818,"puma":"3604165","puma_name":"Midtown, East Midtown, & Flatiron","cuisine":"Middle Eastern","boro":"Manhattan","rating":null,"price":null,"fsq_id":null},{"name":"Naya","lat":40.787564,"lon":-73.977148,"puma":"3604107","puma_name":"Upper West Side","cuisine":"Middle Eastern","boro":"Manhattan","rating":null,"price":null,"fsq_id":null},{"name":"Naya","lat":40.753038,"lon":-74.000282,"puma":"3604104","puma_name":"Chelsea & Hell's Kitchen","cuisine":"Middle Eastern","boro":"Manhattan","rating":null,"price":null,"fsq_id":null},{"name":"Naya","lat":40.750899,"lon":-73.996279,"puma":"3604104","puma_name":"Chelsea & Hell's Kitchen","cuisine":"Middle Eastern","boro":"Manhattan","rating":null,"price":null,"fsq_id":null},{"name":"Nyc Huqqah Haus","lat":40.635567,"lon":-74.026114,"puma":"3604310","puma_name":"Bay Ridge & Dyker Heights","cuisine":"Middle Eastern","boro":"Brooklyn","rating":null,"price":null,"fsq_id":null},{"name":"Paradise Sweets And Bakery","lat":40.634604,"lon":-74.020533,"puma":"3604310","puma_name":"Bay Ridge & Dyker Heights","cuisine":"Middle Eastern","boro":"Brooklyn","rating":null,"price":null,"fsq_id":null},{"name":"Qanoon","lat":40.745289,"lon":-74.002187,"puma":"3604104","puma_name":"Chelsea & Hell's Kitchen","cuisine":"Middle Eastern","boro":"Manhattan","rating":null,"price":null,"fsq_id":null},{"name":"Rainbow Falafel","lat":40.737315,"lon":-73.990809,"puma":"3604165","puma_name":"Midtown, East Midtown, & Flatiron","cuisine":"Middle Eastern","boro":"Manhattan","rating":null,"price":null,"fsq_id":null},{"name":"Shah'S Halal Food","lat":40.747522,"lon":-73.983121,"puma":"3604165","puma_name":"Midtown, East Midtown, & Flatiron","cuisine":"Middle Eastern","boro":"Manhattan","rating":null,"price":null,"fsq_id":null},{"name":"Shah'S Halal Food","lat":40.757359,"lon":-73.968571,"puma":"3604165","puma_name":"Midtown, East Midtown, & Flatiron","cuisine":"Middle Eastern","boro":"Manhattan","rating":null,"price":null,"fsq_id":null},{"name":"Shah'S Halal Food","lat":40.793478,"lon":-73.970793,"puma":"3604107","puma_name":"Upper West Side","cuisine":"Middle Eastern","boro":"Manhattan","rating":null,"price":null,"fsq_id":null},{"name":"Sheba Hookah Lounge","lat":40.627078,"lon":-74.023632,"puma":"3604310","puma_name":"Bay Ridge & Dyker Heights","cuisine":"Middle Eastern","boro":"Brooklyn","rating":null,"price":null,"fsq_id":null},{"name":"Sheel & Mashi","lat":40.632436,"lon":-74.021419,"puma":"3604310","puma_name":"Bay Ridge & Dyker Heights","cuisine":"Middle Eastern","boro":"Brooklyn","rating":null,"price":null,"fsq_id":null},{"name":"Shukette","lat":40.747227,"lon":-74.000772,"puma":"3604104","puma_name":"Chelsea & Hell's Kitchen","cuisine":"Middle Eastern","boro":"Manhattan","rating":null,"price":null,"fsq_id":null},{"name":"T Bites","lat":40.751642,"lon":-73.970862,"puma":"3604165","puma_name":"Midtown, East Midtown, & Flatiron","cuisine":"Middle Eastern","boro":"Manhattan","rating":null,"price":null,"fsq_id":null},{"name":"Tanoreen Caterers","lat":40.631238,"lon":-74.027871,"puma":"3604310","puma_name":"Bay Ridge & Dyker Heights","cuisine":"Middle Eastern","boro":"Brooklyn","rating":null,"price":null,"fsq_id":null},{"name":"The Halal Guys","lat":40.732182,"lon":-73.984539,"puma":"3604165","puma_name":"Midtown, East Midtown, & Flatiron","cuisine":"Middle Eastern","boro":"Manhattan","rating":null,"price":null,"fsq_id":null},{"name":"Yemen Cafe Of Bay Ridge","lat":40.630802,"lon":-74.022085,"puma":"3604310","puma_name":"Bay Ridge & Dyker Heights","cuisine":"Middle Eastern","boro":"Brooklyn","rating":null,"price":null,"fsq_id":null},{"name":"Yemen Whdah","lat":40.634887,"lon":-74.020436,"puma":"3604310","puma_name":"Bay Ridge & Dyker Heights","cuisine":"Middle Eastern","boro":"Brooklyn","rating":null,"price":null,"fsq_id":null},{"name":"Yemenat","lat":40.627747,"lon":-74.023334,"puma":"3604310","puma_name":"Bay Ridge & Dyker Heights","cuisine":"Middle Eastern","boro":"Brooklyn","rating":null,"price":null,"fsq_id":null},{"name":"Zurna","lat":40.799617,"lon":-73.968291,"puma":"3604107","puma_name":"Upper West Side","cuisine":"Middle Eastern","boro":"Manhattan","rating":null,"price":null,"fsq_id":null}],"stats":{"nyc_total":631,"top_neighborhood":"Bay Ridge & Dyker Heights","n_venues":69,"n_affordable_rated":0,"median_rating":null},"data_quality":"ok"}